highway,name,lat,lon
,南相馬鹿島SIC,37.71533258737001,140.9199164847518
,高岡砺波SIC,36.65547593786449,137.0007076209317
,南砺SIC,36.600136,136.902203
,府中SIC,35.660033,139.494772
,豊前IC,33.58766084596067,131.1256937123659
,上毛SIC,33.56124882879607,131.17010635203974
,中津IC,33.532692917265024,131.23350947000108
,佐伯堅田IC,32.930166966680645,131.86452665839374
,鳴門JCT,34.170773,134.561779
,松茂SIC,34.14378116154194,134.56443282506643
,原井IC,34.884678,132.067436
,浜田港IC,34.87832908311964,132.06579241098223
,西村IC,34.84130086273268,132.0087056515762
,郡山下ツ道JCT,34.61237,135.791073
,甲奴IC,34.68996852932446,133.04434662373217
,南波多谷口IC,33.343021459425884,129.92398274301445
,七尾IC,37.02065691418977,136.95299162424226
,今福IC,33.34908932385646,129.76587726135847
,山代久原IC,33.318945915282484,129.8048705728147
,仁摩・石見銀山IC,35.14507841958317,132.41327283015278
,忠類IC,42.55879318694474,143.29270374839473
,忠類大樹IC,42.53729594648746,143.2764334699291
,御所南IC,34.44713972149057,135.7406854787195
,津島岩松IC,33.11124849254304,132.5153194229964
,幸手IC,36.06483182075078,139.73893845389205
,五霞IC,36.095060493368976,139.76179270096063
,境古河IC,36.12498459497823,139.80779434469423
,高知南IC,33.53995882702848,133.58753402920954
,なんこく南IC,33.55909755514344,133.62826190820954
,相模原IC,35.5813658,139.29345041
,白糠IC,43.07934523839705,143.9615491614842
,阿久根北IC,32.06197364116025,130.23255313266316
,阿久根IC,32.026314562635946,130.22459272518358
,蔵田交差点IC,32.59477401525163,131.49699982950813
,下総IC,35.86195901028299,140.39184032379626
,上富田IC,33.70278089882356,135.41231384939374
,南紀白浜IC,33.64918591913016,135.40867327405476
,三宅IC,34.581082,135.786803
,日置川IC,33.5786987491806,135.45587603004628
,すさみIC,33.555137921167045,135.51011822313512
,すさみ南IC,33.51650166103252,135.6032100346972
,京丹波みずほIC,35.18408903648975,135.36314300154652
,砂川SASIC,43.528913,141.928926
,市屋IC,33.58873466357579,135.91493990520792
,岩出根来IC,34.28778147428346,135.30610731282445
,夢前SIC,34.963224347745445,134.69263714068427
,石巻女川IC,38.46139,141.279995
,象潟IC,39.19527234571268,139.924646681156
,桶川加納IC,36.021330673272985,139.5648875041486
,訓子府IC,43.710759184921415,143.73984736117347
,福井北JCT/IC,36.086254,136.278921
,宇佐IC,33.497852750335255,131.3174008482539
,五反田IC,35.62735397085743,139.71409854765454
,王子南IC,35.75467354698782,139.74236239673007
,北波多IC,33.38396413602408,129.93478367097248
,灘浦IC,36.91990395202822,137.00490376979883
,浪江IC,37.498897841656,140.94291328109773
,松岡IC,36.08094700957946,136.2980810683556
,薩摩川内都IC,31.774365301981447,130.29430749883738
,寒川北IC,35.384575006033344,139.37855613434863
,徳島IC,34.10111742570729,134.5768417142118
,黒瀬IC,34.331708990235825,132.6465322468273
,佐伯IC,32.972251383075616,131.86198983570011
,御所IC,34.46669028481551,135.75274403552555
,吉舎IC,34.735520930819234,132.97901614235616
,世羅IC,34.59191570019851,133.08757667128612
,北方IC,32.57264502789815,131.53499506284925
,大井JCT,35.60585500000002,139.755399
,中環大井南IC,35.6040885752882,139.75538780342276
,大栄JCT,35.810251,140.392193
,神崎IC,35.8947955721639,140.37956230500615
,南紀田辺IC,33.74566830399084,135.3724928258796
,丹波IC,35.14643335223548,135.4325991113875
,京丹波わちIC,35.280302542256834,135.3375304832797
,紀の川IC,34.28836682169077,135.3673974694127
,金浦IC,39.25298950365402,139.93082281014256
,三沢十和田下田IC,40.643672,141.373162
,六戸仮出入口IC,40.661169,141.346371
,天間林IC,40.790351,141.086405
,青森東IC,40.824802,140.867173
,青森中央IC,40.796309,140.742887
,落部IC,42.205209,140.396278
,八雲IC,42.263212,140.2523
,国縫IC,42.439362,140.314497
,長万部IC,42.525295,140.365049
,豊浦IC,42.604126,140.638417
,虻田洞爺湖IC,42.558142,140.771929
,伊達IC,42.484143,140.893829
,室蘭IC,42.387173,140.970453
,登別室蘭IC,42.39866,141.080297
,登別東IC,42.461601,141.173715
,白老IC,42.564951,141.328765
,苫小牧西IC,42.633155,141.490569
,千歳IC,42.811841,141.621034
,千歳恵庭JCT,42.845311,141.584973
,恵庭IC,42.87132,141.554589
,輪厚IC,42.951511,141.511956
,北広島IC,42.976683,141.478526
,札幌南IC,43.014914,141.464337
,大谷地IC,43.041798,141.437685
,北郷IC,43.058989,141.425455
,札幌JCT,43.077281,141.420371
,札幌IC,43.07917,141.426736
,江別西IC,43.093554,141.496382
,江別東IC,43.10494,141.599966
,岩見沢IC,43.17451,141.766033
,三笠IC,43.243946,141.830255
,美唄IC,43.332827,141.888331
,奈井江砂川IC,43.450534,141.917947
,滝川IC,43.567561,141.95466
,深川IC,43.689137,142.078434
,音江PASA,43.70881,142.144355
,旭川鷹栖IC,43.80403,142.322886
,旭川北IC,43.837523,142.408412
,和寒IC,44.009223,142.436066
,士別剣淵IC,44.143836,142.402633
,銭函IC,43.133264,141.173811
,手稲IC,43.110711,141.239757
,札幌西IC,43.089983,141.268088
,新川IC,43.10161,141.311319
,札幌北IC,43.101139,141.345004
,伏古IC,43.098013,141.391936
,雁来IC,43.089872,141.411688
,千歳東IC,42.882414,141.709654
,追分町IC,42.89298,141.81673
,夕張IC,42.922673,142.036555
,占冠IC,42.979751,142.409236
,トマムIC,43.04349,142.662364
,十勝清水IC,42.994611,142.856533
,芽室IC,42.9692,143.044793
,音更帯広IC,42.98082,143.179529
,池田IC,42.995345,143.436678
,本別JCT,43.102998,143.555531
,本別IC,43.107017,143.57761
,浦幌IC,43.121199,143.670161
,朝里IC,43.168148,141.05017
,小樽IC,43.180534,141.021021
,足寄IC,43.209491,143.561495
,大泉JCT,35.759019,139.598275
,和光IC,35.785136,139.613607
,和光北IC,35.804017,139.62169
,戸田西IC,35.817749,139.635159
,美女木JCT,35.822668,139.641852
,戸田東IC,35.828826,139.653551
,外環浦和IC,35.83909,139.678544
,川口西IC,35.845963,139.696462
,川口中央IC,35.851021,139.722142
,浦和IC,35.886144,139.724594
,岩槻IC,35.937244,139.690894
,久喜IC,36.060606,139.653578
,加須IC,36.126706,139.627632
,羽生IC,36.16947,139.588679
,館林IC,36.225043,139.570717
,佐野藤岡IC,36.292757,139.61898
,佐野SASIC,36.317764,139.620667
,岩舟JCT,36.34899,139.624214
,栃木IC,36.40234,139.708288
,栃木都賀JCT,36.424095,139.719524
,鹿沼IC,36.539631,139.798918
,宇都宮IC,36.631489,139.845766
,上河内SIC,36.689149,139.890063
,矢板IC,36.762055,139.934075
,西那須野塩原IC,36.916115,139.943804
,黒磯板室IC,36.958774,139.990214
,那須IC,37.005438,140.039709
,那須高原SIC,37.056487,140.100622
,白河IC,37.117361,140.164559
,白河中央SIC,37.147072,140.220235
,矢吹IC,37.195965,140.297531
,鏡石SIC,37.255666,140.335653
,須賀川IC,37.289577,140.3512
,郡山南IC,37.366816,140.311269
,郡山IC,37.434603,140.344189
,郡山JCT,37.462915,140.360221
,本宮IC,37.487722,140.376919
,二本松IC,37.591255,140.418716
,福島松川SIC,37.661449,140.44381
,福島西IC,37.736367,140.421165
,福島飯坂IC,37.802764,140.45531
,国見IC,37.880021,140.530382
,白石IC,38.038874,140.631553
,村田IC,38.120796,140.710833
,村田JCT,38.139545,140.723808
,仙台南IC,38.214967,140.80337
,仙台宮城IC,38.258031,140.810971
,泉PASIC,38.32765,140.854746
,泉IC,38.348048,140.874663
,富谷JCT,38.37425,140.887461
,大和IC,38.4358,140.916217
,大衡IC,38.463721,140.908706
,三本木SIC,38.515402,140.9306
,古川IC,38.590681,140.931646
,長者原SIC,38.637518,140.961407
,築館IC,38.710312,141.008958
,若柳金成IC,38.793579,141.084101
,一関IC,38.93731,141.101387
,平泉前沢IC,39.021436,141.110985
,水沢IC,39.171152,141.117939
,北上金ヶ崎IC,39.240971,141.079302
,北上JCT,39.274166,141.077107
,北上江釣子IC,39.298544,141.087566
,花巻南IC,39.386061,141.091511
,花巻JCT,39.421836,141.101629
,花巻IC,39.44512,141.109693
,紫波IC,39.556305,141.1155
,盛岡南IC,39.652228,141.122862
,盛岡IC,39.710791,141.095625
,滝沢IC,39.797687,141.112213
,西根IC,39.88366,141.089325
,松尾八幡平IC,39.949825,141.032131
,安代JCT,40.10461,141.060303
,安代IC,40.109319,141.048489
,鹿角八幡平IC,40.162151,140.804446
,十和田IC,40.255237,140.766271
,小坂IC,40.319945,140.735858
,碇ヶ関IC,40.466393,140.636126
,大鰐弘前IC,40.547883,140.558399
,黒石IC,40.622233,140.616195
,浪岡IC,40.739958,140.603174
,青森JCT,40.796237,140.67473
,青森IC,40.813752,140.688708
,浄法寺IC,40.192246,141.174548
,一戸IC,40.232399,141.296829
,九戸IC,40.252769,141.4026
,軽米IC,40.327486,141.448912
,南郷IC,40.407293,141.443597
,八戸IC,40.494303,141.465207
,東和IC,39.382546,141.218536
,花巻空港IC,39.408741,141.139433
,北上西IC,39.291761,140.98453
,湯田IC,39.313403,140.747272
,横手IC,39.279532,140.544581
,大曲IC,39.42677215833194,140.42502650966586
,西仙北SIC,39.540466,140.323824
,協和IC,39.59626,140.282879
,河辺JCT,39.640196,140.211201
,秋田南IC,39.659973,140.191223
,秋田中央IC,39.722157,140.181324
,秋田北IC,39.781569,140.11274
,昭和男鹿半島IC,39.858302,140.071102
,宮城川崎IC,38.1746,140.62135
,笹谷IC,38.223586,140.509338
,関沢IC,38.225606,140.447883
,山形蔵王IC,38.245411,140.381452
,山形北IC,38.290437,140.361693
,山形JCT,38.310567,140.317635
,寒河江IC,38.358372,140.292115
,寒河江SASIC,38.366665,140.25987
,西川IC,38.423964,140.165041
,月山IC,38.455712,139.99207
,湯殿山IC,38.573254,139.917324
,庄内あさひIC,38.618756,139.843822
,鶴岡IC,38.732832,139.79491
,庄内空港IC,38.819174,139.802445
,酒田IC,38.868935,139.838349
,酒田みなとIC,38.95709765479665,139.86020383250218
,いわきJCT,37.03782615339275,140.8174998740329
,いわき三和IC,37.10200881511222,140.76977430506176
,差塩PASA,37.175408958596,140.72115793932733
,小野IC,37.29005469078083,140.6126656877516
磐越自動車道,阿武隈高原SA,37.3874450102364,140.59525457431673
,船引三春IC,37.438547,140.522331
,郡山東IC,37.44247,140.4404
,磐梯熱海IC,37.496297,140.285854
,猪苗代磐梯高原IC,37.540858,140.112907
,磐梯河東IC,37.551002,139.970121
,会津若松IC,37.526567,139.918572
,新鶴SIC,37.529945,139.841147
,会津坂下IC,37.562285,139.767623
,西会津IC,37.578109,139.648782
,津川IC,37.673186,139.450462
,三川IC,37.69788,139.371592
,安田IC,37.757925,139.235714
,新津IC,37.804871,139.15029
,新潟中央JCT,37.871918,139.040414
,新潟中央IC,37.875161,139.03837
,新潟空港IC,37.908064,139.13049
,豊栄SIC,37.914791,139.159874
,豊栄新潟東港IC,37.933788,139.222067
,聖籠新発田IC,37.963103,139.29018
,中条IC,38.041062,139.363054
,荒川胎内IC,38.118991,139.412933
,神林岩船港IC,38.174832,139.451356
,村上瀬波温泉IC,38.206132,139.473049
,朝日まほろばIC,38.277267,139.521658
,本荘IC,39.363928,140.074332
,大内JCT,39.442729,140.069867
,松ヶ崎亀田IC,39.500912,140.060621
,岩城IC,39.547481,140.073376
,秋田空港IC,39.636202,140.183418
,五城目八郎潟IC,39.948114,140.097063
,琴丘森岳IC,40.033048,140.088546
,山形上山IC,38.1863943892538,140.303732810658
,山形中央IC,38.270284,140.292978
,天童IC,38.365078,140.346277
,東根IC,38.40921914065935,140.3470007641598
,練馬IC,35.754442,139.60762
,大泉JCT/IC,35.759019,139.598275
,所沢IC,35.808623,139.530177
,三芳SIC,35.842382,139.503324
,川越IC,35.894302,139.458437
,鶴ヶ島IC,35.946498,139.398138
,東松山IC,36.02725,139.381522
,嵐山小川IC,36.067821,139.312992
,花園IC,36.123933,139.249316
,本庄児玉IC,36.219142,139.164108
,藤岡JCT,36.273006,139.095672
,高崎JCT,36.321043,139.075313
,高崎IC,36.337665,139.058888
,前橋IC,36.375031,139.027933
,駒寄SIC,36.431275,139.014918
,渋川伊香保IC,36.475236,139.015307
,赤城IC,36.536326,139.048162
,昭和IC,36.615665,139.067487
,沼田IC,36.656939,139.069954
,月夜野IC,36.676227,139.020351
,水上IC,36.747004,138.975578
,谷川岳PASA,36.778592,138.942745
,湯沢IC,36.933252,138.827862
,六日町IC,37.084177,138.875392
,大和SIC,37.164174,138.951008
,小出IC,37.214021,138.973851
,堀之内IC,37.255555,138.92605
,越後川口IC,37.269284,138.837713
,小千谷IC,37.306763,138.779473
,長岡南越路SIC,37.392662,138.792156
,長岡IC,37.446113,138.78815
,長岡JCT,37.460095,138.792071
,藤岡IC,36.271661,139.076088
,吉井IC,36.243023,138.991384
,富岡IC,36.24011,138.895504
,下仁田IC,36.235604,138.823814
,松井田妙義IC,36.312778,138.776134
,碓氷軽井沢IC,36.294066,138.671876
,佐久平SIC,36.276745,138.511586
,佐久IC,36.287065,138.483714
,佐久小諸JCT,36.300419,138.481047
,小諸IC,36.345797,138.407452
,東部湯の丸IC,36.372586,138.347023
,上田菅平IC,36.41319,138.284173
,坂城IC,36.445483,138.206996
,更埴JCT,36.552917,138.141644
,長野IC,36.575074,138.201096
,須坂長野東IC,36.634392,138.273477
,小布施SIC,36.690956,138.293717
,信州中野IC,36.729878,138.317385
,豊田飯山IC,36.796286,138.321579
,信濃町IC,36.822133,138.191061
,妙高高原IC,36.865456,138.194328
,中郷IC,36.968935,138.221144
,新井SIC,37.026985,138.224806
,上越高田IC,37.088697,138.226064
,上越JCT,37.140018,138.215191
,川口東IC,35.852628,139.745919
,草加IC,35.84807,139.786672
,外環三郷西IC,35.842953,139.851941
,三郷IC,35.832464,139.86364
,三郷料金所SIC,35.865397,139.883158
,流山IC,35.877768,139.899535
,柏IC,35.908742,139.934876
,谷和原IC,35.969882,139.981314
,谷田部IC,36.024444,140.08072
,桜土浦IC,36.057105,140.155435
,土浦北IC,36.119815,140.184966
,千代田石岡IC,36.173716,140.244898
,石岡小美玉SIC,36.221071,140.281165
,岩間IC,36.282297,140.319748
,友部SASIC,36.309423,140.341189
,友部JCT,36.319564,140.345264
,水戸IC,36.3823,140.386191
,水戸北SIC,36.41788803530576,140.4263768539661
,那珂IC,36.453118,140.474755
,東海SIC,36.484639,140.550565
,日立南太田IC,36.509051,140.575691
,日立中央IC,36.601391,140.635669
,日立北IC,36.651422,140.66962
,高萩IC,36.743397,140.683173
,北茨城IC,36.797983,140.724968
,いわき勿来IC,36.902123,140.748819
,いわき湯本IC,37.002633,140.809493
,いわき中央IC,37.065426,140.835995
,いわき四倉IC,37.12703694610058,140.94530105134749
,広野IC,37.238194,140.983713
,常磐富岡IC,37.37539429761051,140.9663271773951
,山元IC,37.98494057,140.8754143
,亘理IC,38.08618133375865,140.8868801527665
,市原IC,35.496228,140.093493
,姉崎袖ケ浦IC,35.427318,140.042367
,木更津北IC,35.386036,139.997699
,木更津JCT,35.376428,139.97989
,木更津南JCT,35.353946,139.948494
,君津IC,35.31892457806211,139.94395971971753
,君津PASIC,35.2831341758955,139.9265231279851
,富津中央IC,35.251617,139.892062
,木更津南IC,35.350319,139.920555
,三郷南IC,35.802279,139.87773
,湾岸市川IC,35.691932,139.955689
,湾岸習志野IC,35.66281,140.02184
,湾岸千葉IC,35.64975,140.05496
,宮野木JCT,35.660328,140.100476
,千葉北IC,35.670976,140.119
,四街道IC,35.684458,140.179174
,佐倉IC,35.687193,140.238174
,富里IC,35.743759,140.311295
,大栄IC,35.837607,140.450545
,佐原香取IC,35.873718,140.53661
,潮来IC,35.938478,140.587102
,茨城空港北IC,36.230706525587024,140.42412562320442
,宮野木IC,35.660328,140.100476
,首都高速/東関東自動車道接続部SA,35.684487,139.942988
,前橋南IC,36.333723,139.099591
,駒形IC,36.348093,139.143493
,波志江SIC,36.353901,139.189566
,伊勢崎IC,36.354685,139.220252
,太田藪塚IC,36.346977,139.276731
,太田桐生IC,36.330384,139.389161
,足利IC,36.362313,139.484352
,佐野田沼IC,36.359522,139.568687
,都賀IC,36.439613,139.757274
,壬生IC,36.457523,139.823178
,宇都宮上三川IC,36.484292,139.905766
,真岡IC,36.446745,139.968632
,桜川筑西IC,36.3602,140.082347
,笠間西IC,36.345895,140.173696
,友部IC,36.339842,140.272997
,茨城町西IC,36.306113,140.387308
,茨城JCT,36.304194,140.411739
,茨城町東IC,36.314816,140.457186
,水戸南IC,36.32972,140.48848
,調布IC,35.661552,139.535693
,稲城IC,35.656151,139.512314
,国立府中IC,35.672706,139.440662
,八王子IC,35.676368,139.348737
,相模湖東出口IC,35.618647,139.191465
,相模湖IC,35.621106,139.167196
,上野原IC,35.621478,139.117938
,大月IC,35.606577,138.926345
,大月JCT,35.602401,138.916949
,都留IC,35.563032,138.908396
,河口湖IC,35.484817,138.77484
,勝沼IC,35.652198,138.73766
,一宮御坂IC,35.633854,138.675698
,甲府南IC,35.600479,138.588521
,甲府昭和IC,35.643182,138.537378
,双葉SIC,35.678331,138.510087
,双葉JCT,35.689833,138.496678
,韮崎IC,35.720251,138.46524
,須玉IC,35.77273,138.423732
,長坂IC,35.836189,138.388596
,小淵沢IC,35.870561,138.312238
,諏訪南IC,35.937514,138.210733
,諏訪IC,36.003214,138.128005
,岡谷JCT,36.052072,138.043518
,伊北IC,35.944346,137.983062
,伊那IC,35.865705,137.943384
,駒ヶ根IC,35.741505,137.910942
,松川IC,35.608352,137.885078
,飯田IC,35.498916,137.795223
,園原IC,35.457574,137.676075
,中津川IC,35.474923,137.485788
,恵那IC,35.453645,137.395001
,瑞浪IC,35.371755,137.236809
,土岐IC,35.375127,137.192383
,多治見IC,35.348443,137.107949
,小牧東IC,35.329866,137.027011
,小牧JCT,35.284702,136.978985
,小牧IC,35.303105000000016,136.91052900000005
,一宮IC,35.273418,136.83051
,一宮JCT,35.28266524420987,136.781222343077
,岐阜羽島IC,35.307429,136.691624
,大垣IC,35.316349,136.617972
,関ヶ原IC,35.35392,136.473218
,米原JCT,35.317367,136.321412
,彦根IC,35.261051,136.278788
,八日市IC,35.092374,136.225704
,竜王IC,35.052968,136.101443
,栗東東IC,35.029308,136.001763
,栗東IC,35.019239,136.006162
,草津JCT,34.98326,135.957038
,瀬田東JCT/IC,34.969754,135.92794
,瀬田西IC,34.968945,135.910892
,大津IC,34.99674,135.869422
,京都東IC,34.988132,135.836597
,京都南IC,34.954853,135.748106
,茨木IC,34.829238,135.558433
,吹田JCT,34.807893,135.543755
,吹田IC,34.803963,135.541821
,豊中IC,34.752412,135.463055
,尼崎IC,34.742226,135.4153
,西宮IC,34.726531,135.354987
,岡谷IC,36.082145,138.038238
,塩尻IC,36.118345,137.981539
,塩尻北IC,36.168633,137.952894
,松本IC,36.234012,137.938415
,梓川SIC,36.265916,137.932615
,豊科IC,36.29797,137.925674
,麻績IC,36.453409,138.048418
,姨捨SIC,36.497349,138.096391
,更埴IC,36.552241,138.131172
,東京IC,35.628044,139.620155
,東名川崎IC,35.58734,139.567606
,横浜青葉IC,35.54247575335546,139.5390104066853
,横浜町田IC,35.508603,139.484503
,海老名北JCT,35.42247,139.374871
,厚木IC,35.423749,139.363038
,秦野中井IC,35.351805,139.233749
,大井松田IC,35.34301805718085,139.15706646442823
,御殿場IC,35.29468270578259,138.9487834314244
,裾野IC,35.219217,138.907991
,富士IC,35.180356,138.676226
,富士川SIC,35.158847,138.618553
,清水IC,35.041356,138.474857
,静岡IC,34.947272,138.394008
,焼津IC,34.881573,138.299628
,吉田IC,34.791861,138.23468
,相良牧之原IC,34.762042,138.138919
,菊川IC,34.750056,138.086217
,掛川IC,34.76523,138.024242
,袋井IC,34.759824,137.901247
,磐田IC,34.749609,137.86025
,遠州豊田SIC,34.748153,137.840411
,浜松IC,34.747783,137.78858
,浜松西IC,34.765109786001815,137.67943152927575
,三ケ日IC,34.797301,137.580486
,豊川IC,34.838474,137.414205
,音羽蒲郡IC,34.867389,137.302666
,岡崎IC,34.943238,137.198944
,豊田JCT,35.021142,137.147545
,豊田IC,35.071694,137.11465699999997
,東名三好IC,35.112825,137.095523
,日進JCT,35.155206,137.050714
,名古屋IC,35.172261,137.022652
,春日井IC,35.269837,136.994188
,海老名北IC,35.437309,139.376751
,首都高速/東名高速道路接続部SA,35.627268,139.626402
,一宮西IC,35.293437,136.779228
,尾西IC,35.314777,136.77645
,一宮木曽川IC,35.343035,136.794627
,岐阜各務原IC,35.386822,136.817588
,関IC,35.467028,136.892151
,美濃IC,35.527232,136.905787
,美並IC,35.661651,136.957781
,瓢ヶ岳PASA,35.672364,136.953996
,郡上八幡IC,35.748487,136.944632
,ぎふ大和IC,35.790111,136.906125
,白鳥IC/JCT,35.87288,136.876172
,高鷲IC,35.93585573115708,136.87981469078088
,ひるがの高原SIC,35.987443,136.90983
,荘川IC,36.019819,136.961403
,飛騨清見IC,36.132399,137.075338
,白川郷IC,36.262858,136.89968
,五箇山IC,36.391704,136.878769
,福光IC,36.533857,136.888816
,豊田東IC,35.032921,137.163106
,豊田南IC,35.02171,137.072819
,豊明IC,35.040976,136.999415
,名古屋南IC,35.047771,136.948201
,大府IC,35.044754,136.928632
,増穂IC,35.55966087279052,138.47202465347002
,南アルプスIC,35.615242,138.479973
,白根IC,35.640942,138.472275
,佐久南IC,36.2436156083617,138.4422980124327
,佐久中佐都IC,36.26286,138.450431
,佐久北IC,36.293403,138.469988
,新潟亀田IC,37.878869,139.076243
,新潟西IC,37.867717,139.005197
,黒埼SIC,37.820683,138.980321
,巻潟東IC,37.744843,138.939265
,三条燕IC,37.652705,138.940223
,中之島見附IC,37.530318,138.869814
,西山IC,37.441032,138.658484
,柏崎IC,37.360473,138.592914
,米山IC,37.337831,138.476851
,柿崎IC,37.268659,138.393051
,大潟SIC,37.216692,138.325073
,上越IC,37.150706,138.261933
,名立谷浜IC,37.166452,138.113149
,能生IC,37.090776,137.987041
,糸魚川IC,37.027509,137.852487
,親不知IC,37.000841,137.721526
,越中境PASA,36.972627,137.607669
,朝日IC,36.93995,137.55013
,入善SIC,36.91652,137.513666
,黒部IC,36.882274,137.487147
,魚津IC,36.814664,137.426613
,滑川IC,36.740968,137.379021
,立山IC,36.685194,137.325055
,流杉SIC,36.664307,137.268504
,富山IC,36.655118,137.206041
,富山西IC,36.680619,137.132407
,小杉IC,36.690825,137.080768
,砺波IC,36.623459,136.951994
,小矢部IC,36.630181,136.850172
,金沢森本IC,36.606766,136.706821
,金沢東IC,36.60755,136.675965
,金沢西IC,36.563292,136.596481
,徳光SIC,36.534693,136.527785
,美川IC,36.503849,136.49728
,小松IC,36.422232,136.43033
,安宅SIC,36.395823,136.392535
,片山津IC,36.372255,136.359069
,加賀IC,36.292005,136.288138
,金津IC,36.235263,136.280346
,丸岡IC,36.145114,136.284957
,福井北IC,36.086254,136.278921
,福井IC,36.033465,136.254869
,鯖江IC,35.951389,136.201423
,武生IC,35.901023,136.202718
,南条SIC,35.8302,136.200807
,今庄IC,35.800064,136.190713
,敦賀IC,35.645567,136.095722
,木之本IC,35.500631,136.217576
,長浜IC,35.399447,136.293404
,米原IC,35.323192,136.319812
,新潟黒崎IC,37.877097,139.014947
,飛島IC,35.05174432811352,136.81809859103737
,湾岸弥富IC,35.049842,136.783216
,弥富木曽岬IC,35.045282,136.756449
,湾岸長島IC,35.033939,136.730281
,湾岸桑名IC,35.0248,136.706062
,みえ川越IC,35.020593,136.686928
,みえ朝日IC,35.029205,136.646143
,四日市JCT,35.038128298187914,136.6281126283936
,四日市東IC,35.026391,136.605652
,四日市IC,34.992295,136.550094
,鈴鹿IC,34.931625,136.488588
,亀山JCT,34.896167,136.456457
,亀山PASIC,34.867679,136.415854
,亀山IC,34.865733,136.414093
,関JCT,34.845594,136.410529
,伊勢関IC,34.842699,136.414619
,芸濃IC,34.803541,136.447842
,津IC,34.736273,136.473287
,久居IC,34.682334,136.459656
,一志嬉野IC,34.631339,136.451108
,松阪IC,34.576363,136.467135
,勢和多気JCT,34.463778,136.510501
,勢和多気IC,34.458709,136.506202
,玉城IC,34.466814,136.619459
,伊勢西IC,34.473038,136.710889
,伊勢IC,34.48059,136.731892
,名古屋南JCT/IC,35.049861,136.944992
,有松IC,35.064958,136.964162
,鳴海IC,35.095071,136.989504
,植田IC,35.136009,137.00002
,上社南IC,35.16935,137.005644
,上社JCT,35.171408,137.004896
,上社IC,35.173154,137.004233
,引山IC,35.191744,136.998382
,大森IC,35.202831,136.99218
,小幡IC,35.210186,136.981924
,松河戸IC,35.223635,136.968889
,勝川IC,35.227411,136.947355
,楠IC,35.229599,136.918327
,山田東IC,35.228848,136.901636
,山田西IC,35.224179,136.885923
,平田IC,35.222671,136.86897
,清洲東/清洲JCT,35.221654,136.855006
,清洲西IC,35.211951,136.824564
,甚目寺北IC,35.201197,136.81912
,甚目寺南IC,35.187633,136.816409
,大治北IC,35.180596,136.816345
,大治南IC,35.163421,136.817453
,名古屋西IC,35.157197,136.811043
,蟹江IC,35.147094,136.781205
,弥富IC,35.127298,136.72992
,長島IC,35.111005,136.695112
,桑名東IC,35.090972,136.669472
,桑名IC,35.065017,136.646125
,法隆寺IC,34.590517,135.740404
,香芝IC,34.562537,135.693514
,柏原IC,34.55637,135.646915
,藤井寺IC,34.575709,135.601995
,長原IC,34.598925,135.574276
,八尾IC,34.632846,135.585781
,東大阪南IC,34.648672,135.596554
,東大阪北IC,34.696682,135.592076
,大東鶴見IC,34.708513,135.592276
,門真JCT,34.715613,135.589573
,門真IC,34.725907,135.583532
,摂津南IC,34.762456,135.570264
,摂津北IC,34.784509,135.562569
,清洲東IC,35.221654,136.855006
,本郷IC,35.174109,137.015334
,松原IC,34.583003,135.568586
,甲賀土山IC,34.924199,136.261949
,甲南IC,34.914126,136.153757
,信楽IC,34.925325,136.085614
,草津田上IC,34.978498,135.961095
,美原北IC,34.555388,135.566397
,美原JCT,34.552537,135.565502
,美原南IC,34.542663,135.553768
,堺JCT,34.517727,135.490838
,堺IC,34.510851,135.489914
,岸和田和泉IC,34.438348,135.444456
,貝塚IC,34.390187,135.393206
,泉佐野JCT,34.365082,135.335207
,泉南IC,34.345721,135.27724
,阪南IC,34.335568,135.268214
,和歌山北IC,34.258067,135.219633
,和歌山IC,34.23971035879323,135.2131482599319
,海南東IC,34.15623,135.231413
,海南IC,34.144152,135.212533
,下津IC,34.127193,135.201229
,有田IC,34.060176793179664,135.20057828987353
,御坊IC,33.89880364165014,135.1848849461006
,御坊南IC,33.88748369191509,135.18248299563083
,印南IC,33.82585,135.219849
,みなべIC,33.779457,135.324264
,紀勢大内山IC,34.294858,136.385403
,大宮大台IC,34.383031,136.406831
,吉備IC,34.060176793179664,135.20057828987353
,吉川JCT,34.893507,135.151564
,三田西IC,34.930982,135.158904
,丹南篠山口IC,35.067013,135.179403
,春日IC,35.164328,135.118954
,福知山IC,35.286256,135.177356
,綾部IC,35.32725539635773,135.2574330093957
,綾部PASA,35.36502587762148,135.30877557907735
,舞鶴西IC,35.402486,135.337765
,舞鶴東IC,35.458815,135.421733
,大飯高浜IC,35.449768,135.549407
,小浜西IC,35.478445,135.658851
,中国吹田IC,34.807263,135.533038
,中国豊中IC,34.800906,135.454496
,中国池田IC,34.804991,135.43253
,宝塚IC,34.806475,135.368906
,西宮北IC,34.838423,135.235563
,神戸JCT,34.84983300384164,135.22261799731083
,神戸三田IC,34.882084,135.186699
,吉川IC,34.889914,135.116877
,ひょうご東条IC,34.895755,135.079835
,滝野社IC,34.93099,134.963772
,加西IC,34.934737,134.866432
,福崎IC,34.948722,134.761893
,山崎IC,34.9988,134.550779
,佐用JCT,35.021504,134.389345
,佐用IC,35.022186,134.369522
,作東IC,35.015899,134.248731
,美作IC,35.026067,134.162388
,津山IC,35.062562,134.051636
,院庄IC,35.064422,133.951183
,落合JCT,35.051263,133.808023
,落合IC,35.025174,133.747049
,北房JCT,34.984089,133.683036
,北房IC,34.97669,133.659084
,大佐SIC,35.03575,133.541063
,新見IC,34.998113,133.447051
,東城IC,34.887935,133.278865
,庄原IC,34.845662,133.022639
,三次IC,34.785607,132.861199
,高田IC,34.718208,132.681188
,千代田IC,34.671623,132.54237
,千代田JCT,34.660959,132.525661
,広島北JCT,34.574075,132.457031
,加計SIC,34.576799,132.328766
,戸河内IC,34.576837,132.275436
,吉和IC,34.483437,132.153506
,六日市IC,34.351843,131.94477
,鹿野IC,34.233953,131.809686
,徳地IC,34.200808,131.667567
,山口IC,34.153503,131.522898
,山口JCT,34.132356,131.451037
,小郡IC,34.126515,131.403773
,美祢IC,34.17048,131.245287
,美祢西IC,34.108056,131.14256
,下関JCT,34.091172,131.078964
,小月IC,34.078928,131.031587
,下関IC,33.978627,130.952549
,広島北IC,34.550317,132.451815
,美祢東JCT,34.172479,131.319938
,神戸北IC,34.840082,135.198202
,三木JCT,34.811503,135.075194
,三木東IC,34.798437,135.054189
,三木小野IC,34.812443,134.957558
,加古川北IC,34.848756,134.830899
,山陽姫路東IC,34.851357,134.741195
,山陽姫路西IC,34.868063,134.613697
,龍野IC,34.852132,134.545795
,竜野IC,34.852132,134.545795
,龍野西IC,34.833771,134.505202
,竜野西IC,34.833771,134.505202
,播磨JCT,34.830247,134.490791
,赤穂IC,34.773908,134.373576
,備前IC,34.783269,134.262613
,和気IC,34.78703,134.16121
,山陽IC,34.743074,134.024474
,岡山IC,34.701971,133.887201
,吉備SIC,34.693582,133.872756
,岡山JCT,34.676921,133.818947
,倉敷JCT,34.627004,133.793451
,倉敷IC,34.626279,133.770571
,玉島IC,34.584199,133.686784
,鴨方IC,34.55169,133.591437
,笠岡IC,34.535317,133.512026
,福山東IC,34.513568,133.396377
,尾道JCT,34.459111,133.192916
,尾道IC,34.462539,133.177525
,三原久井IC,34.463429,133.052251
,河内IC,34.429189,132.871581
,西条IC,34.441496,132.754221
,志和IC,34.460492,132.645202
,広島東IC,34.450585,132.544477
,広島IC,34.465592,132.479783
,広島JCT,34.44916,132.412349
,五日市IC,34.429561,132.391755
,宮島SIC,34.366236,132.316934
,廿日市JCT,34.336845,132.294527
,大竹JCT,34.243777,132.216605
,岩国IC,34.176279,132.166679
,玖珂IC,34.083415,132.083875
,熊毛IC,34.035274,131.971733
,徳山東IC,34.0457,131.852436
,徳山西IC,34.069094,131.686314
,防府東IC,34.072956,131.563496
,防府西IC,34.05692,131.539559
,山口南IC,34.08757,131.464277
,宇部JCT,33.993995,131.317598
,宇部IC,33.992144,131.284739
,小野田IC,34.0231,131.186377
,埴生IC,34.047231,131.098725
,神戸西IC,34.728003,135.085687
,播磨新宮IC,34.93344773835213,134.45523876031342
,岡山総社IC,34.693368,133.797611
,早島IC,34.601532,133.811454
,高屋JCT/IC,34.430722,132.804783
,佐用平福IC,35.060651,134.364228
,大原IC,35.103096,134.331634
,智頭IC,35.285033,134.226281
,用瀬IC,35.355847,134.196532
,河原IC,35.395541,134.204373
,鳥取南IC,35.42822,134.206637
,鳥取IC,35.479349,134.197205
,総社PASA,34.697625,133.755395
,賀陽IC,34.809434,133.682619
,有漢IC,34.911759,133.681577
,久世IC,35.071686,133.792278
,上野PASA,35.103488,133.781745
,湯原IC,35.168583,133.741118
,蒜山IC,35.271727,133.617161
,江府IC,35.300786,133.479347
,溝口IC,35.362718,133.451565
,大山高原SIC,35.38659,133.41955
,米子JCT/IC,35.426017,133.39979
,尾道北IC,34.516488,133.165709
,三刀屋木次IC,35.294582,132.890361
,宍道JCT,35.38662,132.881708
,宍道IC,35.393303,132.899799
,松江玉造IC,35.433405,133.038598
,広島西風新都IC,34.475918,132.389363
,大朝IC,34.760225,132.486002
,瑞穂IC,34.827934,132.400548
,旭IC,34.872784,132.261809
,金城SIC,34.882948,132.192514
,浜田IC,34.911308,132.106912
,斐川IC,35.368085,132.841984
,出雲IC,35.325886,132.711041
,藍住IC,34.117566,134.479247
,土成IC,34.121154,134.35626
,脇町IC,34.076649711943695,134.1694408102695
,美馬IC,34.057529,134.048972
,吉野川SIC,34.037844,133.89423
,井川池田IC,34.028598,133.839804
,川之江東JCT,33.997289,133.619818
,川之江JCT,34.000653,133.597012
,三島川之江IC,33.978931,133.577333
,土居IC,33.955471,133.464225
,新居浜IC,33.926414,133.326827
,いよ西条IC,33.912057,133.238339
松山自動車道,石鎚山SA,33.885292,133.108421
,川内IC,33.794366,132.903136
,松山IC,33.79485,132.780767
,伊予IC,33.736505,132.701012
,内子五十崎IC,33.544172,132.652694
,板野IC,34.152713,134.472952
,引田IC,34.22655166688944,134.38540650963697
,白鳥大内IC,34.23401939220533,134.33380158343888
,津田東IC,34.27625208635495,134.2762319480489
,高松東IC,34.2974575930944,134.11742088455617
,高松中央IC,34.304716,134.073978
,高松檀紙IC,34.305798,134.003021
,高松西IC,34.294973,133.9891
,府中湖SIC,34.273798,133.922133
,坂出JCT,34.281422,133.851047
,善通寺IC,34.24247,133.786222
,三豊鳥坂IC,34.204503,133.732843
,さぬき豊中IC,34.148701,133.715425
,大野原IC,34.085415,133.65555
,新宮IC,33.924062,133.63983
,馬立PASA,33.91093272572296,133.63043733027862
,大豊IC,33.770341444560984,133.65960167208
,南国IC,33.616872,133.635733
高知自動車道,南国SA,33.601613,133.614885
,高知IC,33.589592,133.565453
,伊野IC,33.559679,133.469085
,土佐IC,33.501598,133.416006
,土佐PASIC,33.478235,133.368479
,須崎東IC,33.417061,133.302306
,西予宇和IC,33.360864,132.526953
,鳴門IC,34.173069,134.57337
,坂出IC,34.295957,133.844997
,門司IC,33.924207,130.982597
,新門司IC,33.887012,130.969279
,北九州JCT,33.816083,130.884916
,小倉南IC,33.803744,130.852674
,八幡IC,33.780814,130.745915
,鞍手IC,33.776257,130.69202
,宮田SIC,33.75086,130.639303
,若宮IC,33.747573,130.609313
,古賀IC,33.718625,130.493455
,福岡IC,33.629183,130.489405
,須恵SIC,33.587021,130.501029
,太宰府IC,33.530568,130.497046
,筑紫野IC,33.473723,130.521262
,鳥栖JCT,33.396547,130.538428
,久留米IC,33.317683,130.55753
,広川IC,33.254746,130.53684
,八女IC,33.210543,130.523344
,みやま柳川IC,33.147418,130.508359
,南関IC,33.071773,130.545749
,菊水IC,32.987545,130.605465
,植木IC,32.932761,130.69575
,熊本IC,32.834355,130.779596
,益城熊本空港IC,32.790601,130.790034
,御船IC,32.734107,130.77732
,松橋IC,32.648163,130.708224
,八代IC,32.512711,130.647852
,八代JCT,32.505087,130.646203
,人吉IC,32.232193,130.770582
,えびのPASA,32.069069,130.796334
,えびのIC,32.049953,130.801372
,えびのJCT,32.031743,130.798108
,栗野IC,31.944414,130.720656
,横川IC,31.897666,130.705131
,溝辺鹿児島空港IC,31.789711,130.717667
,姶良IC,31.728701,130.58874
,薩摩吉田IC,31.671954,130.564458
,鹿児島北IC,31.624658,130.527554
,鳥栖IC,33.39476,130.523429
,小林IC,31.984567,130.93261
,高原IC,31.929243,131.017885
,都城IC,31.782075,131.115411
,田野IC,31.821298,131.302771
,清武JCT,31.848594,131.357881
,宮崎IC,31.87049,131.416046
,長崎IC,32.727748,129.904344
,長崎芒塚IC,32.75119006263775,129.92716879897924
,長崎多良見IC,32.81104497789375,129.9712041538574
,諫早IC,32.833094,130.011677
,大村IC,32.932494,129.970585
,東そのぎIC,33.036769,129.926166
,嬉野IC,33.111958,129.975163
,武雄JCT,33.147315,129.998122
,武雄北方IC,33.218727,130.049863
,多久IC,33.287159,130.129281
,佐賀大和IC,33.321579,130.277858
,東脊振IC,33.354027,130.396017
,筑後小郡IC,33.403184,130.590397
,甘木IC,33.401623,130.650016
,朝倉IC,33.3811,130.72679
,杷木IC,33.369689,130.809077
,日田IC,33.340585,130.929574
,天瀬高塚IC,33.295662,131.051033
,玖珠IC,33.290388,131.163191
,九重IC,33.23206,131.208949
,湯布院IC,33.257247,131.329196
,日出JCT,33.352008,131.447561
,別府湾SIC,33.335631,131.461211
,別府IC,33.29464,131.463482
,大分IC,33.222566,131.574188
,大分光吉IC,33.197405,131.600897
,大分米良IC,33.199878,131.635366
,速見IC,33.378083,131.452217
,苅田北九州空港IC,33.794405,130.966825
,大分宮河内IC,33.194203,131.70017
,臼杵IC,33.103921,131.780951
,津久見IC,33.082053,131.844072
,門川IC,32.500816,131.661674
,高鍋IC,32.155818,131.491133
,西都IC,32.073458,131.413081
,宮崎西IC,31.935662,131.35743
,清武IC,31.868437,131.359008
,曽於弥五郎IC,31.59318,130.967515
,末吉財部IC,31.678212,130.937366
,国分IC,31.705964,130.779162
,隼人東IC,31.720695,130.733465
,成田JCT/IC,35.782962,140.344586
,成田SIC,35.781908,140.354182
,新空港IC,35.767569,140.388406
,上之郷IC,34.369358,135.334588
,泉佐野IC,34.397964,135.314399
,門司港IC,33.958465,130.964884
,許田IC,26.541451,127.958536
,宜野座IC,26.489963,127.970975
,金武IC,26.458269,127.902032
,屋嘉IC,26.452795,127.848021
,石川IC,26.438325,127.829151
,沖縄北IC,26.373746,127.817909
,沖縄南IC,26.33629,127.790479
,喜舎場SIC,26.301627,127.792224
,北中城IC,26.290412,127.788624
,西原IC,26.247652,127.750549
,那覇IC,26.212144,127.723981
,函館IC/JCT,41.844842,140.740105
,七飯大川IC,41.869844,140.729054
,七飯本町IC,41.89859,140.70627
,七飯藤城IC,41.922585,140.670704
,名寄IC,44.327764,142.448263
,名寄北IC,44.364282,142.435595
,智恵文南入口IC,44.41474,142.403054
,智恵文IC,44.444323,142.371448
,美深IC,44.474236,142.37029
,幌延IC,45.010536,141.839892
,豊富サロベツIC,45.099262,141.796083
,豊富幌加IC,45.157401,141.787984
,豊富北IC,45.226956,141.748661
,黒松内JCT,42.641297,140.440825
,黒松内南IC,42.646704,140.434636
,黒松内IC,42.670518,140.3937
,高野交差点SA,43.855464,144.083836
,美幌IC,43.847428,144.123381
,女満別空港IC,43.882867,144.156911
,八戸北IC,40.557126,141.432554
,下田百石IC,40.600828,141.422155
,釜石西IC,39.2518272514109,141.75638431631808
,滝観洞IC,39.23803656374408,141.67387284897765
,遠野住田IC,39.26474677260641,141.58896821035577
,八竜IC,40.1181,140.011297
,能代南IC,40.153917,140.02269
,能代東IC,40.18424,140.080669
,二ツ井白神IC,40.211819,140.199128
,米沢北IC,37.95399254603348,140.11569543642554
,南陽高畠IC,38.0248189835495,140.16375235997933
,新庄IC,38.739322,140.298266
,新庄市十日町IC,38.776587566639584,140.28906477276422
,金山町飛ノ森IC,38.915822,140.325264
,金山町中田IC,38.945919,140.354298
,真室川町及位IC,38.981981,140.361896
,中田仮出入口IC,38.945919,140.354298
,雄勝こまちIC,39.060283,140.459761
,須川IC,39.089743,140.483954
,三関IC,39.138887,140.482818
,十文字IC,39.235466,140.521181
,大堤交差点IC,39.291072,140.552851
,岩沼IC,38.10548224107799,140.88981978587174
,仙台空港IC,38.135082,140.888027
,名取IC,38.182414,140.931885
,仙台若林JCT,38.207556,140.944861
,仙台東IC,38.245678,140.953379
,利府JCT,38.310697,140.977161
,利府しらかし台IC,38.353228,140.953759
,穴川IC,35.641764,140.114059
,千葉東JCT,35.603663,140.150822
,松ヶ丘IC,35.593307,140.14727
,蘇我IC,35.567026,140.137847
,富津竹岡IC,35.196003,139.859067
,富津金谷IC,35.171254,139.830421
,鋸南保田IC,35.14251,139.84783
,鋸南富山IC,35.114657,139.851462
,富浦IC,35.038241,139.850608
,水戸大洗IC,36.339791,140.54423
,ひたちなかIC,36.3748,140.575676
,久我IC,34.841552,136.366393
,向井IC,34.837228,136.340424
,板屋IC,34.839753,136.320802
,南在家IC,34.836501,136.310995
,伊賀IC,34.839085,136.256939
,上柘植IC,34.830601,136.23684
,下柘植IC,34.818004,136.215956
,御代IC,34.812115,136.204344
,壬生野IC,34.804791,136.190878
,伊賀一之宮IC,34.791789,136.163497
,中瀬IC,34.771999,136.157067
,友生IC,34.754753,136.14715
,上野東IC,34.752907,136.132992
,上野IC,34.747953,136.122361
,大内IC,34.738886,136.11071
,白樫IC,34.723192,136.08513
,治田IC,34.706024,136.075743
,五月橋IC,34.695597,136.06027
,山添IC,34.681061,136.039529
,神野口IC,34.6501,136.01791
,小倉IC,34.626177,135.984638
,針IC,34.612179,135.962242
,一本松IC,34.612255,135.938341
,福住IC,34.608096,135.909939
,五ヶ谷IC,34.621299,135.878996
,天理東IC,34.614552,135.854564
,天理IC,34.617614,135.831978
,東海IC,35.051615,136.900706
,名港潮見IC,35.054368,136.872988
,名港中央IC,35.052167,136.846637
,那智勝浦IC,33.643701,135.928694
,新宮南IC,33.690173,135.96723
,新宮市三輪崎IC,33.695542,135.987448
,尾鷲南IC,34.039471978540995,136.18668829207763
,三木里IC,34.002489,136.188283
,大野IC,34.299242,132.272762
,陶IC,34.088597,131.428403
,名田島IC,34.08606,131.414392
,岡屋IC,34.058411,131.368218
,原条IC,34.055022,131.362973
,嘉川IC,34.054989,131.349863
,由良IC,34.026719,131.335886
,阿知須IC,34.014402,131.328132
,西粟倉IC,35.178664,134.334808
,尾見ランプIC,35.237456,134.287798
,智頭南IC,35.237456,134.287798
,青谷IC,35.5116863816237,134.0052791011714
,泊東郷IC,35.507103,133.929047
,はわいIC,35.495977,133.866102
,大栄東伯IC,35.500151,133.719676
,琴浦東IC,35.485086,133.696617
,琴浦船上山IC,35.508952,133.63056
,赤碕中山IC,35.508747,133.599806
,淀江IC,35.460806,133.438969
,米子東IC,35.426459,133.405378
,日野川東IC,35.422514,133.379775
,米子南IC,35.417241,133.357085
,米子中IC,35.409065,133.326229
,米子西IC,35.409065,133.326229
,淀江大山IC,35.460806,133.438969
,安来IC,35.416605,133.261774
,東出雲IC,35.427202,133.133155
,竹矢IC,35.440557,133.113056
,矢田IC,35.443926,133.101345
,松江東IC,35.449745,133.084514
,松江中央IC,35.442092,133.060093
,松江西IC,35.436482,133.0485
,竹矢ランプIC,35.440557,133.113056
,矢田ランプIC,35.443926,133.101345
,松江東ランプIC,35.449745,133.084514
,松江中央ランプIC,35.442092,133.060093
,松江西ランプIC,35.436482,133.0485
,江津IC,35.002766,132.213908
,江津西IC,34.970627,132.177132
,浜田東IC,34.928365,132.145902
,浜田JCT,34.906703,132.120385
,浜田バイパス西口IC,34.882492,132.062586
,竹迫ランプIC,34.893668,132.08407
,遠田IC,34.708275,131.860995
,久城IC,34.697089,131.848797
,高津IC,34.688071,131.824478
,萩・石見空港IC,34.673213,131.810654
,須子IC,34.660255,131.811069
,明石IC,34.388488,131.323978
,三隅IC,34.362613,131.255681
,萩IC,34.388842,131.403931
,三見IC,34.385682,131.350051
,須崎中央IC,33.396563,133.283519
,須崎西IC,33.385606,133.274255
,津田寒川IC,34.294299,134.226278
,志度IC,34.308371,134.19406
,さぬき三木IC,34.301865,134.144507
,四万十IC,32.98226,132.938525
,間IC,32.969763,132.883353
,大洲IC,33.534169,132.577671
,大洲北IC,33.524246,132.576401
,大洲冨士IC,33.507328,132.574968
,大洲肱南IC,33.4992,132.551274
,大洲南IC,33.495422,132.54586
,大洲北只IC,33.488697,132.538229
,宇和島北IC,33.243752,132.568282
,宇和島朝日IC,33.223998,132.559042
,宇和島坂下津IC,33.212418,132.544663
,宇和島別当IC,33.206651,132.544336
,宇和島南IC,33.198723,132.545914
,津島高田IC,33.142221,132.520138
,舞野IC,32.573645,131.601538
,辻垣IC,33.707383,130.998583
,草場橋交差点SA,33.697249,130.995272
,平成橋交差点SA,33.690232,130.997436
,徳永交差点SA,33.685116,130.996566
,築城IC,33.662321,131.014101
,椎田IC,33.635326,131.057223
,中村交差点SA,33.621416,131.081472
,四郎丸交差点SA,33.613834,131.096425
,山田交差点SA,33.613007,131.10212
,院内IC,33.475532,131.333978
,安心院IC,33.445769,131.371657
,大分農業文化公園IC,33.423578,131.424623
,山下交差点SA,33.538805,131.295728
,延岡JCT/IC,32.576093,131.622947
,延岡IC,32.576093,131.622947
,延岡南IC,32.529079,131.665243
,隼人西IC,31.737506,130.70036
,加治木IC,31.74418938383018,130.67444253787264
,加治木JCT,31.747553,130.666649
,苫小牧東IC/JCT,42.709762,141.652094
,沼ノ端西IC,42.689415,141.695544
,沼ノ端東IC,42.674861,141.734211
,苫東中央IC,42.672673,141.783878
,厚真IC,42.62369,141.837875
,苫小牧東IC,42.709762,141.652094
,鵡川IC,42.588835,141.927167
,日高富川IC,42.528013,142.038876
,深川JCT,43.666145,142.025943
,深川西IC,43.704286,142.004043
,秩父別IC,43.764402,141.981804
,北竜ひまわりIC,43.826262,141.836497
,留萌幌糠IC,43.848763,141.757315
,比布JCT,43.920012,142.46928
,比布北IC,43.919524,142.49844
,愛別IC,43.894862,142.572424
,愛山上川IC,43.859709,142.683569
,上川層雲峡IC,43.839013,142.761834
,上川天幕出入口IC,43.860221,142.85579
,浮島IC,43.886361,142.96712
,奥白滝IC,43.870314,143.075558
,白滝IC,43.886752,143.19754
,丸瀬布IC,43.98846456154012,143.32695030056504
,旧白滝出入口IC,43.933098,143.250051
,帯広JCT,42.970419,143.095628
,芽室帯広IC,42.932473,143.107879
,帯広川西IC,42.849113,143.178832
,幸福IC,42.748697,143.168183
,中札内IC,42.702386,143.16122
,函館IC,41.844842,140.740105
,北斗追分IC,41.834871,140.694072
,北斗中央IC,41.836266,140.648355
,上磯IC,41.836266,140.648355
,北斗富川IC,41.805413,140.619439
,五所川原東IC,40.777058,140.500941
,五所川原IC,40.801762,140.47971
,仙台港北IC,38.28001,140.992259
,利府塩釜IC,38.322594,140.989494
,利府中IC,38.340623,140.999905
,松島海岸IC,38.364093,141.030773
,松島大郷IC,38.399481,141.041027
,松島北IC,38.400961,141.072374
,鳴瀬奥松島IC,38.411669,141.13698
,矢本IC,38.42859,141.196304
,石巻港IC,38.440831,141.241395
,石巻河南IC,38.44567,141.267315
,河北IC,38.499101,141.287261
,桃生豊里IC,38.561865,141.271059
,桃生津山IC,38.597271,141.282045
,登米IC,38.676581,141.265814
,登米東和IC,38.70784505636436,141.30342961699253
,唐桑南IC,38.93185976460582,141.6168013713026
,唐桑北IC,38.953235765474886,141.6280385390411
,大船渡碁石海岸IC,39.033874,141.712252
,大船渡IC,39.107172,141.708374
,大船渡北IC,39.125168,141.735075
,山田南IC,39.42018173025084,141.9684752628519
,山田IC,39.480944635261565,141.94926224221172
,宮古南IC,39.59623339110457,141.93927047397136
,宮古中央IC,39.627601,141.91794
,八戸南IC,40.480691,141.555319
,種差海岸階上岳IC,40.470926,141.594851
,久慈北IC,40.22117067006924,141.7818731398524
,久慈IC,40.197213,141.782266
,八王子JCT,35.640425,139.254167
,八王子西IC,35.678371,139.252252
,あきる野IC,35.717512,139.283527
,日の出IC,35.735827,139.282379
,青梅IC,35.797482,139.323206
,入間IC,35.818134,139.368658
,狭山日高IC,35.865018,139.378136
,圏央鶴ヶ島IC,35.920491,139.388706
,鶴ヶ島JCT,35.935059,139.405988
,坂戸IC,35.967445,139.443507
,川島IC,35.981442,139.466204
,桶川北本IC,36.002072,139.519587
,つくば中央IC,36.05735775996006,140.08831507270912
,つくばJCT,36.033696,140.1229
,つくば牛久IC,36.023901,140.134815
,牛久阿見IC,35.991974,140.18092
,阿見東IC,35.980843,140.239737
,稲敷IC,35.957877,140.298094
,松尾横芝IC,35.662797,140.438316
,山武成東IC,35.618124,140.382842
,東金IC,35.57449,140.315778
,藤沢IC,35.347724,139.447232
,茅ヶ崎中央IC,35.350706,139.396523
,中ノ湯IC,36.205946,137.603444
,平湯IC,36.187135,137.552537
,高山IC,36.166367,137.230269
,高山西IC,36.139351,137.171294
,白鳥西IC,35.877982,136.844841
,油坂第3TN坑口SA,35.876791,136.830421
,油坂峠出入口IC,35.870171,136.815547
,勝山IC,36.062124,136.46579
,上志比IC,36.07617901129416,136.38378458691403
,永平寺東IC,36.08748968113112,136.32839023080845
,永平寺西IC,36.081616,136.317162
,小矢部砺波JCT,36.630436,136.908314
,小矢部東IC,36.651537,136.90997
,高岡IC,36.737986,136.962293
,高岡北IC,36.770675,136.979409
,氷見IC,36.856551,136.955089
,氷見北IC,36.876954,136.970978
,田鶴浜IC,37.055355,136.888938
,徳田大津JCT,37.058924,136.842166
,徳田大津IC,37.063372,136.832942
,横田IC,37.136566,136.833324
,越の原IC,37.212386,136.880723
,穴水IC,37.237516,136.899002
,此木IC,37.237516,136.899002
,能登空港IC,37.2849109116744,136.9264330550264
,沼津IC,35.147583,138.865437
,沼津岡宮IC,35.143094,138.863851
,長泉IC,35.150064,138.895877
,三島萩IC,35.150651,138.915129
,大仁中央IC,35.009589,138.93969
,大仁南IC,34.998327,138.935152
,熊坂IC,34.989883,138.934374
,修善寺IC,34.976334,138.937403
,大平IC,34.96093292046203,138.93960516231698
,飯田山本IC,35.467889,137.758394
,天龍峡IC,35.43479366688618,137.81276574659623
,喬木IC,35.451883,137.940994
,国道152号接続部IC,35.440795,137.99149
,豊田東JCT,35.04407942036416,137.1933081697888
,豊田松平IC,35.071199,137.210554
,鞍ヶ池SIC,35.094642,137.223051
,豊田勘八IC,35.12075,137.207107
,豊田藤岡IC,35.162537,137.177635
,せと赤津IC,35.22149,137.136193
,せと品野IC,35.246295,137.139287
,土岐南多治見IC,35.333276,137.17472
,土岐JCT,35.356446,137.163873
,可児御嵩IC,35.431821,137.100477
,美濃加茂IC,35.470406,137.021912
,富加関IC,35.508395,136.974262
,美濃関JCT,35.518844,136.902127
,関広見IC,35.508229866681894,136.87309503205358
,城陽IC,34.846552056205375,135.7618676174066
,田辺北IC,34.838376,135.754344
,田辺西IC,34.807133,135.755413
,精華下狛IC,34.777185,135.773312
,精華学研IC,34.74703,135.783765
,山田川IC,34.7361,135.791543
,木津IC,34.720433,135.811756
,橿原北IC,34.532365,135.777823
,五條北IC,34.388275,135.712176
,五條IC,34.356032,135.684461
,五條西IC,34.340034,135.667248
,橋本東IC,34.334517,135.652345
,橋本IC,34.32159,135.602251
,高野口IC,34.31203,135.547456
,布施畑JCT/IC,34.695187,135.07526
,垂水JCT/IC,34.659703,135.067724
,宮津天橋立IC,35.51454,135.192914
,舞鶴大江IC,35.433095,135.206019
,綾部JCT,35.349534,135.292
,綾部安国寺IC,35.335625,135.309082
,園部IC,35.122601,135.479728
,八木西IC,35.091405,135.501183
,八木中IC,35.083128,135.508971
,八木東IC,35.073809,135.517434
,千代川IC,35.050786,135.53462
,大井IC,35.030979,135.545122
,亀岡IC,35.01141,135.558802
,篠IC,34.990459,135.60853
,沓掛IC,34.978012,135.657826
,大山崎JCT/IC,34.904669,135.692687
,久御山淀IC,34.894404,135.719454
,久御山IC,34.898637,135.740805
,春日JCT/IC,35.164328,135.118954
,氷上IC,35.163712,135.045339
,青垣IC,35.243623,135.013079
,遠阪ランプIC,35.291472,134.969005
,山東IC,35.302892,134.908019
,和田山JCT/IC,35.31474,134.847391
,福山西JCT,34.461453,133.237889
,西藤IC,34.449861,133.237186
,西瀬戸尾道IC,34.432178,133.218863
,高須IC,34.432178,133.218863
,上三永IC,34.39511,132.793072
,下三永福本IC,34.377585,132.752767
,馬木IC,34.361537,132.727945
,大島北IC,34.171421,133.066191
,大島南JCT,34.129441,133.032767
,今治湯ノ浦IC,33.994242,133.046412
,東予丹原IC,33.918,133.073581
,いよ小松北IC,33.89431,133.081558
,いよ小松JCT/IC,33.882854,133.089017
,月隈JCT,33.565247,130.462871
,西月隈IC,33.562567,130.460676
,板付IC,33.557209,130.455752
,野多目IC,33.541862,130.425476
,堤IC,33.543252,130.381884
,野芥IC,33.548185,130.3463
,福重IC,33.562454,130.318745
,福重JCT,33.568358,130.315183
,捨六町IC,33.569057,130.296752
,今宿IC,33.572794,130.27847
,周船寺IC,33.571361,130.250977
,前原IC,33.539219,130.197696
,今宿道路終点糸島市二丈福井SA,33.503829,130.098403
,鹿家IC,33.486114,130.059591
,二丈鹿家IC,33.471516,130.043216
,浜玉IC,33.444814,130.050547
,唐津IC,33.414876,130.000828
,佐世保中央IC,33.172771,129.712165
,佐世保みなとIC,33.15291,129.731087
,佐世保大塔IC,33.146279,129.777692
,相浦中里IC,33.202528,129.672294
,佐世保三川内IC,33.169699,129.848367
,波佐見有田IC,33.156215,129.89251
,武雄南IC,33.147895,129.990533
,八代南IC,32.464333,130.601861
,日奈久IC,32.429875,130.566731
,田浦IC,32.36735,130.516355
,芦北IC,32.297647559950974,130.50890644004903
,串木野IC,31.725348,130.291031
,市来IC,31.672705,130.32276
,美山IC,31.639295,130.356888
,伊集院IC,31.619442,130.411111
,松元IC,31.607484,130.459087
,鹿児島西IC,31.591711,130.5074
,鹿児島IC,31.585963,130.515255
,南風原南IC,26.180902,127.724411
,豊見城・名嘉地IC,26.17582,127.671639
,西原JCT,26.21905,127.739372
,南風原北IC,26.200188,127.739585
,江戸橋JCT,35.684078,139.778736
,宝町IC,35.67872,139.775399
,京橋JCT,35.674519,139.772674
,京橋IC,35.672904,139.772494
,新富町IC,35.671287,139.771874
,銀座IC,35.669287,139.769743
,汐留IC,35.663138,139.762668
,汐留JCT,35.662323,139.761967
,浜崎橋JCT,35.652605,139.760171
,芝公園IC,35.653234,139.747463
,飯倉IC,35.662174,139.738175
,谷町JCT,35.666628,139.738477
,霞が関IC,35.672772,139.746865
,三宅坂JCT,35.679798,139.745828
,代官町IC,35.689267,139.749901
,北の丸出口IC,35.690705,139.753786
,竹橋JCT,35.69135,139.757128
,神田橋IC,35.689115,139.765071
,神田橋JCT,35.688223,139.768456
,呉服橋IC,35.684538,139.771811
,江戸橋IC,35.68407,139.77572
,東銀座出口IC,35.674548,139.770442
,大橋JCT,35.65276,139.68964
,富ヶ谷IC,35.665259,139.687864
,初台南IC,35.675549,139.687813
,西新宿JCT,35.682387,139.68828
,中野長者橋IC,35.69395,139.682334
,西池袋IC,35.726677,139.695826
,高松IC,35.737791,139.703594
,熊野町JCT,35.741182,139.706806
,板橋JCT,35.750791,139.708493
,新板橋/滝野川IC,35.748836,139.719572
,王子北IC,35.755518,139.742476
,江北JCT,35.766377,139.762759
,扇大橋IC,35.76006,139.770946
,千住新橋IC,35.760493,139.807118
,小菅JCT,35.754052,139.820933
,小菅IC,35.750911,139.820934
,堀切JCT,35.744404,139.823599
,四つ木IC,35.73195,139.833463
,平井大橋IC,35.71564,139.849407
,船堀橋IC,35.686966,139.857043
,清新町IC,35.667042,139.84948
,葛西JCT,35.646818,139.850555
,本町IC,35.693585,139.77509
,入谷IC,35.71981,139.783926
,芝浦JCT,35.646961,139.757343
,芝浦IC,35.64133,139.75445
,勝島IC,35.598162,139.742618
,鈴ヶ森IC,35.59141,139.739023
,平和島IC,35.581154,139.745196
,昭和島JCT,35.572174,139.749296
,空港西IC,35.557424,139.753598
,羽田IC,35.55182,139.745553
,一ノ橋JCT,35.65582,139.737919
,天現寺IC,35.646592,139.727099
,目黒IC,35.636596,139.717713
,荏原IC,35.620164,139.71821
,戸越IC,35.618262,139.718027
,高樹町IC,35.659506,139.720919
,渋谷IC,35.657558,139.701562
,池尻IC,35.650067,139.683547
,三軒茶屋IC,35.64602,139.676089
,用賀IC,35.626817,139.629077
,渋谷四丁目IC,35.658616,139.711202
,外苑IC,35.680136,139.717686
,代々木IC,35.679666,139.694423
,新宿IC,35.684078,139.690734
,初台IC,35.679379,139.682831
,幡ヶ谷IC,35.677281,139.677175
,永福IC,35.668615,139.647098
,高井戸IC,35.677255,139.614292
,一ツ橋IC,35.694182,139.754335
,西神田IC,35.69698,139.75257
,飯田橋IC,35.706353,139.743746
,早稲田IC,35.710319,139.732112
,護国寺IC,35.718968,139.726435
,東池袋IC,35.72952,139.716911
,北池袋IC,35.739899,139.708571
,板橋本町IC,35.763833,139.704589
,中台IC,35.775883,139.679496
,高島平IC,35.785454,139.649317
,戸田南IC,35.803508,139.648451
,戸田IC,35.819981,139.644207
,箱崎IC,35.680685,139.784428
,箱崎JCT,35.681522,139.786374
,浜町IC,35.68277,139.788736
,清洲橋IC,35.683925,139.790337
,両国JCT,35.691088,139.789725
,向島IC,35.722052,139.809875
,堤通IC,35.735458,139.814917
,加平IC,35.778025,139.824677
,八潮南IC,35.804061,139.831789
,八潮IC,35.812651,139.844307
,三郷JCT/IC,35.836254,139.859282
,錦糸町IC,35.693032,139.815128
,小松川IC,35.699197,139.864467
,一之江IC,35.697428,139.880675
,京葉道路接続SA,35.705052,139.908248
,木場IC,35.672434,139.803422
,塩浜IC,35.663641,139.805364
,枝川IC,35.659584,139.807417
,辰巳JCT,35.64426,139.812775
,豊洲IC,35.64658029385681,139.79028311577608
,東雲JCT,35.638003,139.79709
,台場IC,35.636344,139.77499
,有明JCT,35.630984,139.784062
,常磐橋IC,35.685428,139.770355
,八重洲IC,35.680359,139.76912
,丸の内IC,35.677232,139.767124
,西銀座JCT,35.675856,139.765909
,並木IC,35.361041,139.637223
,幸浦IC,35.361364,139.643542
,杉田IC,35.382404,139.627366
,磯子IC,35.398234,139.617855
,三渓園IC,35.412833,139.659693
,本牧ふ頭IC,35.433898,139.670144
,本牧JCT,35.439632,139.667607
,東扇島IC,35.498892,139.76035
,湾岸環八IC,35.540099,139.793247
,空港中央IC,35.5499,139.786351
,東海JCT,35.580893,139.756531
,大井南IC,35.595379,139.755339
,臨海副都心IC,35.624285,139.772081
,13号地IC,35.624285,139.772081
,有明IC,35.639776,139.800331
,新木場IC,35.646968,139.830714
,葛西IC,35.64507,139.861024
,舞浜IC,35.638096,139.880386
,浦安IC,35.646054,139.898183
,千鳥町IC,35.673304,139.928471
,大師IC,35.537321,139.741337
,大師JCT/IC,35.537321,139.741337
,浜川崎IC,35.513429,139.719426
,浅田IC,35.50397,139.701819
,汐入IC,35.499231,139.692442
,生麦JCT,35.49146344424881,139.6709202429883
,生麦IC,35.490818,139.66928
,守屋町IC,35.486176,139.657292
,子安IC,35.484938,139.652798
,東神奈川IC,35.475765,139.63676
,金港JCT,35.467323,139.625226
,横浜駅東口IC,35.463153,139.62387
,みなとみらいIC,35.456535,139.626774
,横浜公園IC,35.441688,139.639444
,石川町JCT,35.43851,139.642693
,横浜駅西口IC,35.468657,139.615699
,三ツ沢IC,35.472761,139.602946
,第三京浜接続IC,35.474651,139.600001
,新山下IC,35.439409,139.661991
,山下町IC,35.44327,139.656691
,石川町IC,35.439427,139.645113
,阪東橋IC,35.435907,139.622979
,花之木IC,35.434552,139.614666
,永田IC,35.439707,139.597292
,狩場IC,35.441288,139.580467
,大黒ふ頭/大黒JCT,35.461755,139.678971
,大黒ふ頭IC,35.461755,139.678971
,浮島/川崎浮島JCT,35.518485,139.79163
,殿町IC,35.537671,139.758411
,鹿浜橋IC,35.778066,139.746846
,東領家IC,35.789917,139.755104
,足立入谷IC,35.80668,139.759065
,新郷IC,35.819503,139.759975
,安行IC,35.83315,139.756545
,新井宿IC,35.846958,139.739442
,川口JCT,35.853005,139.733918
,与野IC,35.891565,139.611655
,新都心西IC,35.897137,139.621275
,新都心IC,35.894547,139.637602
,さいたま見沼IC,35.895192,139.663396
,南浦和IC,35.832883,139.632909
,浦和北IC,35.868939,139.620125
,東片端IC,35.180147,136.913916
,東新町IC,35.170276,136.914533
,丸田町JCT,35.161263,136.915552
,東別院IC,35.149901,136.904059
,錦橋IC,35.169105,136.889795
,名駅IC,35.169804,136.889794
,明道町IC,35.179526,136.889971
,東片端JCT,35.178533,136.914091
,黒川IC,35.195359,136.912417
,楠JCT,35.229227,136.909925
,新洲崎JCT,35.162109,136.890883
,白川IC,35.16225,136.896417
,吹上東IC,35.160021,136.927443
,吹上西IC,35.160237,136.925223
,春岡IC,35.159208,136.939653
,四谷IC,35.159705,136.958614
,高針IC,35.149633,136.993294
,高針JCT,35.14738,137.000088
,鶴舞南JCT,35.150252,136.917261
,高辻IC,35.139946,136.918308
,堀田IC,35.125566,136.920291
,呼続IC,35.109571,136.922873
,笠寺IC,35.094989,136.928901
,大高IC,35.058331,136.932808
,星崎IC,35.081245,136.927662
,山王JCT,35.152045,136.892696
,六番北IC,35.128444,136.890821
,黄金IC,35.159354,136.879902
,烏森IC,35.15748,136.861036
,千音寺IC,35.15768,136.821453
,名古屋西JCT,35.158082792715454,136.8182884396242
,明道町JCT,35.17763,136.889932
,庄内通IC,35.200576,136.890773
,鳥見町IC,35.203105,136.884282
,清須IC,35.219929,136.855755
,豊山南IC,35.240227,136.909048
,豊山北IC,35.261987,136.907978
,小牧南IC,35.275967,136.906947
,堀の内IC,35.286972,136.906031
,西春IC,35.253517,136.843434
,一宮西春IC,35.262205,136.841221
,一宮南IC,35.266201,136.837248
,一宮東IC,35.286368,136.829801
,一宮中IC,35.301185,136.822331
,湊町JCT/IC,34.667187,135.498044
,四ツ橋IC,34.675048,135.497641
,信濃橋／西船場JCT,34.681924,135.498028
,西船場JCT,34.681924,135.498028
,土佐堀IC,34.690696,135.497586
,中之島JCT,34.691938,135.497553
,堂島IC,34.695095,135.499065
,北浜IC,34.693817,135.506435
,渡辺橋JCT,34.691929,135.509615
,高麗橋IC,34.688405,135.509802
,長堀IC,34.677749,135.510845
,道頓堀IC,34.670418,135.510572
,高津IC/JCT,34.666749,135.510378
,夕陽丘IC,34.660321,135.509511
,公園北JCT,34.654935,135.508444
,えびす町IC,34.655517,135.504408
,なんばIC,34.658106,135.500546
,北港JCT,34.667403,135.421604
,島屋／ユニバーサルシティIC,34.670648,135.429266
,島屋東／島屋IC,34.67308,135.434147
,出入橋IC,34.695001,135.49243
,中之島IC,34.692411,135.493493
,梅田IC,34.697749,135.48992
,福島IC,34.698329,135.485619
,塚本IC,34.714079,135.467096
,加島IC,34.724174,135.456604
,豊中南IC,34.759905,135.461777
,豊中北IC,34.780621,135.454646
,大阪空港IC,34.789358,135.447432
,神田IC,34.813409,135.419115
,川西小花IC,34.825506,135.419896
,池田木部IC,34.837515,135.426028
,南森町IC,34.699535,135.509406
,扇町IC,34.70273,135.510351
,長柄IC,34.706187,135.51605
,都島IC,34.721744,135.52883
,城北IC,34.72118,135.536031
,守口IC,34.751721,135.573181
,森小路IC,34.715271,135.554558
,東船場JCT,34.681806,135.510552
,法円坂IC,34.681363,135.518523
,森之宮IC,34.681492,135.529079
,高井田IC,34.678334,135.565153
,長田IC,34.678721,135.588793
,東大阪荒本/東大阪JCT,34.678656,135.597218
,中野IC,34.678598,135.606674
,水走IC,34.680182,135.630612
,天王寺IC,34.648973,135.506611
,阿倍野IC,34.647456,135.506069
,文の里IC,34.637013,135.517166
,駒川IC,34.622516,135.531063
,平野IC,34.61985,135.548909
,喜連瓜破IC,34.610715,135.549124
,大堀IC,34.592811,135.568654
,松原JCT,34.589894,135.575628
,汐見橋IC,34.666282,135.486677
,芦原IC,34.659216,135.486545
,浜津橋JCTIC,34.653443,135.48545
,津守IC,34.646711,135.486241
,玉出IC,34.624157,135.486837
,住之江IC,34.606228,135.483239
,堺（R26）IC,34.573216,135.475952
,阿波座IC,34.681646,135.493028
,西長堀JCT/IC,34.681213,135.486367
,本田／九条IC,34.677565,135.476546
,波除IC,34.670369,135.466784
,天保山JCT,34.653893,135.440738
,西長堀JCT,34.681213,135.486367
,北津守IC,34.65451,135.481078
,大正東IC,34.655365,135.477683
,大正西IC,34.660809,135.466771
,弁天町IC,34.665608,135.464025
,安治川IC,34.671215,135.460708
,南港北IC,34.634544,135.434451
,南港中IC,34.619818,135.434767
,南港南IC,34.61199,135.442328
,三宝IC,34.599133,135.462295
,大浜IC,34.582932,135.459399
,出島IC,34.568652,135.455987
,石津IC,34.56094,135.45016
,浜寺IC,34.545806,135.437779
,高石IC,34.534344,135.430198
,助松JCTIC,34.519085,135.418464
,泉大津IC,34.510452,135.406085
,岸和田北IC,34.491729,135.37996
,岸和田南IC,34.458662,135.359647
,泉佐野北IC,34.427138,135.328066
,泉佐野南IC,34.416412,135.309383
,りんくうJCT,34.412393,135.296892
,中ノ島西IC,34.68528,135.484526
,海老江IC,34.695208,135.466027
,姫島IC,34.705912,135.455005
,大和田IC,34.70847,135.448561
,尼崎東IC,34.711535,135.428712
,尼崎西IC,34.715323,135.393039
,武庫川IC,34.717041,135.378426
,西宮IC/JCT,34.726531,135.354987
,芦屋IC,34.732486,135.322948
,深江IC,34.717856,135.286014
,魚崎IC,34.711816,135.271892
,摩耶IC,34.702912,135.226503
,生田川IC,34.693317,135.203764
,柳原IC,34.668409,135.169227
,湊川IC/JCT,34.657882,135.151938
,月見山IC,34.652231,135.122091
,湊川IC,34.657882,135.151938
,北港西IC,34.666759,135.419792
,中島IC,34.691616,135.409926
,尼崎東海岸IC,34.69731,135.401419
,尼崎末広IC,34.695928,135.390944
,鳴尾浜IC,34.697412,135.365124
,甲子園浜IC,34.710343,135.34822
,西宮浜IC,34.715646,135.336887
,南芦屋浜IC,34.713829,135.312458
,深江浜IC,34.711275,135.299349
,住吉浜IC,34.705626,135.267203
,魚崎浜IC,34.704548,135.274008
,六甲アイランド北IC,34.695158,135.272798
,伊川谷JCT,34.677042,135.014502
,永井谷JCT,34.684973,135.022512
,永井谷IC,34.68574,135.02438
,前開IC,34.699176,135.057296
,布施畑西IC,34.694173,135.077955
,布施畑東IC,34.699655,135.08924
,白川JCT,34.707357,135.098367
,しあわせの村IC,34.713354,135.108299
,藍那IC,34.732393,135.128901
,箕谷IC,34.757277,135.158241
,からと西IC,34.771,135.205242
,からと東IC,34.784496,135.217921
,有馬口JCT,34.794639,135.226857
,有馬口IC,34.796659,135.228729
,西宮山口南IC,34.818054,135.250044
,西宮山口東IC,34.832032,135.257984
,西宮山口JCT,34.834942,135.26153
,五社IC,34.804968,135.215228
,柳谷JCT,34.807158,135.200225
,神戸長田IC,34.663987,135.146232
,妙法寺IC,34.677095,135.108669
,白川南IC,34.686212,135.106586
,山科IC,34.971563,135.796322
,鴨川東IC,34.972864,135.76747
,鴨川西IC,34.97221782664724,135.76290333132442
,上鳥羽IC,34.96311982891705,135.75278216695793
,城南宮北IC,34.954912,135.75213
,城南宮南IC,34.94632761808174,135.75175490765506
,伏見IC,34.931012,135.751027
,第二京阪道路/阪神高速道路接続SA,34.914137,135.749712
,福田IC,34.447105,132.54046
,温品IC,34.416087,132.51481
,間所IC,34.40496218328993,132.51040038739995
,温品JCT,34.404183,132.508227
,矢賀IC,34.400542,132.501405
,府中IC,34.393713,132.501268
,東雲IC,34.378144,132.498445
,仁保IC,34.364252,132.499215
,仁保JCT,34.356861,132.497261
,宇品IC,34.355326,132.471806
,中広IC,34.402239,132.44198
,香椎東IC,33.666894,130.441405
,香椎IC,33.661845,130.439198
,香椎浜IC,33.65303,130.4296
,名島IC,33.642046,130.423298
,貝塚JCT,33.635598,130.420199
,東浜IC,33.615302,130.411064
,千鳥橋JCT,33.607659,130.407082
,築港IC,33.604139,130.401671
,天神北IC,33.600837,130.392022
,西公園IC,33.600163,130.376105
,百道IC,33.594981,130.356523
,愛宕IC,33.585128,130.340487
,姪浜IC,33.579327,130.329789
,石丸/福重IC,33.571479,130.31673
,呉服町IC,33.602627,130.409763
,千代IC,33.598789,130.416891
,博多駅東IC,33.594367,130.424911
,豊JCT,33.597388,130.429954
,榎田IC,33.59285,130.435799
,半道橋IC,33.584154,130.440289
,月隈IC,33.573001,130.454012
,金の隈IC,33.562745,130.467542
,大野城IC,33.553116,130.47662
,水城IC,33.531411,130.491378
,空港通IC,33.598674,130.431904
,松島IC,33.631902,130.434579
,多の津IC,33.628294,130.448717
,粕屋IC,33.626885,130.469707
,小倉東IC,33.832714,130.910332
,横代IC,33.839283,130.899565
,若園IC,33.845727,130.881939
,篠崎南IC,33.863209,130.874216
,紫川JCT,33.866342,130.868429
,篠崎北IC,33.868194,130.871215
,大手町IC,33.874983,130.87194
,下到津IC,33.880015,130.858647
,小倉駅北IC,33.889585,130.872726
,東港JCT,33.890769,130.868561
,日明IC,33.895711,130.862496
,西港IC,33.900245,130.852481
,戸畑IC,33.901482,130.834544
,若戸IC,33.901271,130.825674
,愛宕JCT,33.88418,130.863013
,大里IC,33.902369,130.943357
,富野IC,33.884121,130.907385
,足立IC,33.875678,130.8884
,山路IC,33.859133,130.846945
,大谷JCT,33.857821,130.804515
,黒崎IC,33.842313,130.765558
,小嶺IC,33.817193,130.749266
,馬場山IC,33.792136,130.744888
,金剛IC,33.786879,130.746086
,枝光IC,33.875927,130.810317
,東田IC,33.868158,130.806047
,名和IC,35.50145,133.50727
,大山IC,35.478151,133.46545
,吉備南IC,34.05427530808491,135.20109009395665
,有田南IC,34.05427530808491,135.20109009395665
,湯浅IC,34.029531486525144,135.20086533503462
,広川南IC,33.9693431267449,135.1972843394038
,川辺IC,33.934378734176384,135.19488392935858
,尾花沢北IC,38.658287,140.364111
,毒沢仮出入口IC,38.672634,140.328379
,川原子IC,38.672634,140.328379
,舟形IC,38.70302,140.309472
,大館南IC,40.2691,140.528711
,大館北IC,40.30374,140.564161
,仁賀保（両前寺）IC,39.306557,139.98064
,釜石両石IC,39.30096352509973,141.87212891140294
,釜石北IC,39.33683619622817,141.88050256424546
,淡路IC,34.582891,135.016161
,東浦IC,34.544125,134.981512
,北淡IC,34.521355,134.892511
,津名一宮IC,34.442195,134.873255
,洲本IC,34.342474,134.840855
,西淡三原IC,34.312632,134.75232
,淡路島南IC,34.259488,134.684014
,鳴門北IC,34.220791,134.626389
,水島IC,34.530915,133.803026
,児島IC,34.451723,133.799843
,坂出北IC,34.319369,133.83541
,尾道大橋IC,34.418287,133.219243
,因島北IC,34.33826,133.160668
,因島南IC,34.307584,133.154475
,生口島北IC,34.300853,133.146451
,生口島南IC,34.262448,133.092586
,大三島IC,34.24927,133.048713
,伯方島IC,34.204013,133.078738
,今治北IC,34.097432,132.977732
,今治IC,34.055085,132.97652
,吉田掛合IC,35.197642,132.844227
,鶴岡JCT,38.754779,139.781028
,中土佐IC,33.343221,133.222433
,香南やすIC,33.537684,133.761766
,芸西西IC,33.520445,133.782411
,白岡菖蒲IC,36.046581,139.622497
,久喜白岡JCT,36.049184,139.657947
,佐々IC,33.226974,129.644782
,むかわ穂別IC,42.919077,142.196074
,森IC,42.083781,140.571805
,二井田真中IC,40.250495,140.51609
,鳳来峡IC,34.997942,137.665586
,渋川寺野IC,34.940025,137.667189
,浜松いなさ北IC,34.888606,137.669077
,三間IC,33.283922,132.591435
,日高門別IC,42.49281257803723,142.08890045411803
,鶴岡西IC,38.717455,139.75907
,三瀬IC,38.688366,139.669923
,いらがわIC,38.667337,139.624873
,あつみ温泉IC,38.604573,139.585693
,北斗茂辺地IC,41.76577256884365,140.59062579607945
,三島加茂IC,35.139909,138.938318
,唐津千々賀山田IC,33.402997,129.954695
,松江JCT,35.448026,133.093649
,橿原高田IC,34.49339,135.76122
,船見IC,35.07362,136.897226
,東海新宝IC,35.056651,136.898905
,阿賀IC,34.236357,132.60698
,郷原IC,34.304097,132.625546
,南相馬IC,37.658466,140.920042
,相馬IC,37.7821614,140.89470316
,三ケ日JCT,34.826058,137.545144
,浜松いなさIC,34.874658,137.644333
,浜松いなさJCT,34.882118,137.660242
,浜松SASIC,34.84233,137.748925
,浜松浜北IC,34.834497,137.813974
,森掛川IC,34.825079,137.942557
,島田金谷IC,34.849786,138.121252
,藤枝岡部IC,34.915851,138.261361
,静岡SASIC,34.972918,138.293059
,新静岡IC,35.041571,138.378063
,新清水JCT,35.07778217677859,138.46274855805356
,新清水IC,35.146728,138.522584
,新富士IC,35.202546,138.66148
,長泉沼津IC,35.156847,138.867437
,御殿場JCT,35.263409271353325,138.91120411328953
,清水いはらIC,35.068387,138.478362
,清水JCT,35.046967,138.488804
,白山IC,36.553194,136.580213
,栄SIC,37.60621,138.909644
,大垣西IC,35.369549448629385,136.5868455373025
,養老JCT,35.317953523015206,136.58005557196736
,仁賀保IC,39.295117,139.976507
,大沼公園IC,42.007012,140.622539
,養父IC,35.361048,134.760737
,八鹿氷ノ山IC,35.391392878505854,134.74712047507649
,江刺田瀬IC,39.29078,141.273396
,宮守IC,39.293791,141.403681
,仙台港IC,38.269942,140.977819
,四万十町中央IC,33.23018,133.156441
,四万十町東IC,33.2792,133.179709
,北川IC,32.664431,131.706472
,須美江IC,32.677831,131.76043
,国道2号IC,34.696788,135.202237
,二宮IC,34.70135,135.19872
,神若IC,34.702624,135.198519
,新神戸駅IC,34.705694,135.197017
,尾鷲北IC,34.08088027003805,136.18332906461035
,新津西SIC,37.820933,139.095283
,蓮田SIC,35.999281,139.667017
,山王／尾頭橋IC,35.145663,136.892868
,安曇野IC,36.29797,137.925674
,島屋出口IC,34.67308,135.434147
,蒲江IC,32.813121,131.890501
,蒲江波当津IC,32.74292,131.855588
,北浦IC,32.711277,131.816002
,香南かがみIC,33.551644,133.733451
,五斗蒔SIC,35.37037,137.158287
,階上IC,40.44810421412827,141.64712846757908
,薩摩川内水引IC,31.848866,130.252467
,薩摩川内高江IC,31.822471,130.259736
,留萌大和田IC,43.910265,141.690838
,更別IC,42.647551,143.179111
,清武南IC,31.837747,131.35801
,紀伊長島IC,34.216671,136.329825
,七尾大泊IC,36.971975,137.048102
,七尾城山IC,37.022353,136.985464
,六戸JCT,40.649829,141.352801
,六戸・三沢IC,40.669815,141.310024
,上北IC,40.689509,141.278021
,口和IC,34.91337,132.881053
,高野IC,35.021033,132.878997
,雲南吉田IC,35.166129,132.829618
,海老名IC,35.438977,139.376502
,圏央厚木IC,35.479932,139.372795
,美深北IC,44.496093,142.339572
,北見西IC,43.769337,143.853632
,北見中央IC,43.79387,143.91812
,北見東IC,43.829187,143.943298
,酒々井IC,35.726619,140.292816
,茅ヶ崎JCT,35.349962,139.393037
,寒川南IC,35.352337,139.380097
,大原野IC,34.964716,135.655261
,長岡京IC,34.915053,135.686759
,茂原北IC,35.490029,140.274039
,茂原長南IC,35.403498,140.250849
,市原鶴舞IC,35.358351,140.182785
,木更津東IC,35.359193,140.05347
,新千歳空港IC,42.776707,141.628151
,坂戸西SIC,35.966033,139.380495
,谷津船橋IC,35.676316,140.002959
,賀田IC,33.970626,136.163046
,熊野新鹿IC,33.931357,136.138346
,熊野大泊IC,33.901365,136.114627
,湖東三山SIC,35.16501,136.274944
,小坂北IC,40.371421,140.710181
,小坂JCT,40.37186,140.714603
,六番南IC,35.121037,136.88764
,港明IC,35.111341,136.885632
,海老江JCT,34.696436,135.464418
,三宅西IC,34.592991,135.54611
,海老名JCT,35.42247,139.374871
,三宅JCT,34.593081,135.55187
,鳥取西IC,35.49341774133244,134.1908406023324
,中山IC,35.508642,133.582002
,富谷IC,38.387245,140.8776
,蒲生SIC,35.071289,136.158505
,北見北上IC,43.771425,143.868637
,北見川東IC,43.809454,143.933832
,三島塚原IC,35.13080397,138.94321928
,函南塚本IC,35.08040621,138.93008372
,大場・函南IC,35.09595426,138.94629519
,三島玉沢IC,35.12078616,138.94931775
,石見福光IC,35.0716257,132.33045505
,温泉津IC,35.08231098,132.34416218
,湯里IC,35.09942346,132.37669138
,香南のいちIC,33.55554576,133.70954863
,高崎玉村SIC,36.30647079,139.09193636
,都農IC,32.25217625,131.52534084
,日向IC,32.40124074,131.61639895
,小池高山IC,32.74408391,130.8024568
,嘉島JCT,32.75404627,130.78886884
,大和まほろばSIC,34.60774714,135.76959558
,行橋IC,33.72374243,130.94933207
,守口JCT,34.75485441,135.57565724
,通岡IC,39.0263427,141.67716473
,陸前高田IC,39.03112737081019,141.62830551081018
,宇城氷川SIC,32.57715688,130.71060651
,遠州森町SIC,34.82506153,137.90620607
,八戸是川IC,40.47911648,141.51123092
,八戸JCT,40.46628929,141.4543504
,三良坂IC,34.75856996,132.94193813
,海山IC,34.11785147,136.22225873
,豊見城IC,26.17228463,127.69700725
,紀の川東IC,34.29174062,135.41352841
,かつらぎ西IC,34.29709714,135.4741027
,紀北かつらぎIC,34.30250934,135.50183695
,稲敷東IC,35.92417916,140.34744618
,高尾山IC,35.62390568,139.26341392
,敦賀JCT,35.63479392,136.09264395
,若狭美浜IC,35.61094444,135.97835717
,若狭三方IC,35.57799608,135.91287321
,若狭上中IC,35.51118643,135.86358094
,小浜IC,35.49438813,135.76804043
,つがる柏IC,40.80614983,140.42193436
,五所川原北IC,40.82689079,140.44917521
,野黒沢IC,38.63356082,140.37261991
,三次東JCT,34.80289643,132.91054201
,三次東IC,34.80562227,132.91049762
,相模原愛川IC,35.52311693,139.35384138
,観音SA,34.37332769,132.42220598
,吉島IC,34.36447931,132.44711358
,尾花沢IC,38.605474981322985,140.38786518211035
,新地IC,37.85438238,140.88043756
,みやこ豊津IC,33.67614978,130.99674455
,今川SIC,33.70484102,130.95959439
,鹿屋串良JCT,31.45041583392056,130.9028544869016
,野方IC,31.49835522,130.92449323
,村上山辺里IC,38.22618529,139.50328514
,朝日三面IC,38.24512838,139.51446755
,塩沢石打IC,36.99667787,138.81972778
,三陸IC,39.12472704205862,141.79608651539172
,吉浜IC,39.149354463469166,141.8290182557124
,遠野IC,39.324678446809344,141.50268229087118
,野田IC,32.07565905626984,130.27089522342385
,上里SIC,36.25503,139.120261
,酒田中央IC,38.898351,139.875098
,新城IC,34.92546986530924,137.5379663043752
,岡崎東IC,34.919517234989094,137.27658581709275
,津奈木IC,32.2419854474706,130.467741856878
,庶路IC,43.07717041515545,144.0641156211595
,阿寒IC,43.08699844563775,144.1328170665844
,大井川焼津藤枝SIC,34.81921795026173,138.2670820239135
,釧路西IC,43.03647596683327,144.32653274692717
,釧路中央IC,43.02602989920382,144.40986309285336
,釧路東IC,43.00341371828095,144.43173105560788
,鳥の海SIC,38.03903329367516,140.89255509092908
,愛鷹SIC,35.14280497254152,138.83668745662655
,栗東湖南IC,35.019317389165785,136.02075416337908
,新潟東SIC,37.89795195610765,139.11639488247198
,勝央JCT,35.035107,134.138485
,小郡JCT,34.13116187514581,131.3997286337114
,多賀城IC,38.301523925174486,140.98208338278013
,氷見南IC,36.807390795252026,136.95124755063514
,三滝堂IC,38.70691563212008,141.32711198687008
,高知龍馬空港IC,33.557009797544616,133.67271709509222
,椎田南IC,33.631802736709,131.06887660830722
,国道101号IC,40.79194251335673,140.27910477066737
,南浮田IC,40.7823073081665,140.2485889593207
,鰺ヶ沢IC,40.78173671555837,140.23792265068795
,新四日市JCT,35.04799106940263,136.5843794917765
,東員IC,35.06096693702719,136.58280286904125
,福島JCT,37.78887718644766,140.41755303115605
,福島大笹生IC,37.801469618202624,140.41050614797905
,山之口SIC,31.79510159195303,131.16358892816442
,鷹巣IC,40.20201371267966,140.39610961828663
,志津川IC,38.69017778070639,141.43160843171196
,湯沢市上院内IC,39.03733120042707,140.39034385509362
,湯沢市下院内IC,39.05212069782318,140.42924691663686
,由布岳PASIC,33.3029500488689,131.3979655460196
,石見三隅IC,34.793462119313,131.96621247008528
,のと里山空港IC,37.2849109116744,136.9264330550264
,輪厚SIC,42.951511,141.511956
,長泉JCT,35.148843,138.875925
,坂東IC,36.08897105240564,139.89156341986302
,常総IC,36.07795219713345,139.98241348779615
,高尾野北IC,32.084439765484454,130.29906018184136
,六郷IC,35.48862110868325,138.46424303103203
,三方原SIC,34.75737382004122,137.73788440503398
,駿河湾沼津SIC,35.153261709497194,138.80900682324898
,名取中央SIC,38.15388492067914,140.89651018494072
,和歌山JCT,34.28259352558231,135.27211449599895
,遠軽瀬戸瀬IC,44.00574659341606,143.4331255324874
,南三陸海岸IC,38.692894597938285,141.46263547743877
,長岡北SIC,37.48327413760451,138.82312621323882
,小谷城SIC,35.45150604787227,136.25786903766203
,敦賀南SIC,35.60564387382353,136.04199607670475
,門川南SIC,32.493084982012526,131.65455569282346
,日高神鍋高原IC,35.46677987981717,134.7633289027856
,笛吹八代SIC,35.62304772895057,138.63581271801982
,相馬山上IC,37.7686822027331,140.84799355671862
,相馬玉野IC,37.77137128552125,140.7475422444638
,山元南SIC,37.9104057798351,140.86911277056927
,大多田IC,34.34527749691255,132.68542153083374
,城陽IC/JCT,34.846552056205375,135.7618676174066
,八幡京田辺IC/JCT,34.84333945854983,135.72404658137083
,三宝JCT,34.5980546455422,135.4627667800753
,鉄砲IC,34.59659989334358,135.47997531295724
,横浜港北JCT,35.5163522572657,139.59301210139583
,新横浜IC,35.51661449308115,139.60563809834522
,岸谷生麦IC,35.49124485128864,139.6629866043739
,城南SIC,32.69449191758662,130.7422777691916
,陸別小利別IC,43.588864372542,143.6777010671332
,小黒川SIC,35.84204508530519,137.93387517453976
,米沢八幡原IC,37.894885253498565,140.15510290701306
,米沢中央IC,37.92177756906228,140.13543680352592
,調川IC,33.3542339650491,129.73944112597866
,出水IC,32.105061662449096,130.33164693766918
,養老IC,35.28761856220302,136.57806504315454
,山田北IC,39.54036035957525,141.92047621121012
,高槻JCT,34.86688405830349,135.62625436713688
,高槻IC,34.875977650199914,135.62760035005292
,茨木千堤寺IC,34.883916760814415,135.53398887968373
,箕面とどろみIC,34.876212923636324,135.45455400173523
,川西IC,34.88575466225204,135.3943147080832
,歌津IC,38.70898881892584,141.50656730693913
,南本牧ふ頭IC,35.41990288593717,139.67065014915644
,厚木南IC,35.40635263792325,139.3616243896028
,海老名南JCT,35.40902527547987,139.37228421200436
,鉾田IC,36.17102124143634,140.49104875568034
,淡路島中央SIC,34.3734310895422,134.86050995821296
,霊山飯舘IC,37.75440189288323,140.70752244521117
,霊山IC,37.76527346791256,140.59064959320034
,龍江IC,35.45206959384849,137.84372344967338
,飯田上久堅・喬木富田IC,35.461529261890824,137.87967859625618
,日南北郷IC,31.68776757746062,131.37663908347054
,日南東郷IC,31.62214707198306,131.38841599404768
,駒ヶ岳SIC,35.711809,137.907744
,宝塚北SIC,34.86580732541277,135.30596850202568
,大田朝山IC,35.24399342246576,132.56461369466982
,大田中央・三瓶山IC,35.21565610487346,132.5071254073293
,木場SIC,32.902153,129.979512
,田老真崎海岸IC,39.75187325499509,141.96573076403303
,田老北IC,39.78668671826691,141.96514184609467
,岩泉南IC,39.82180305362132,141.96246647603172
,岩泉龍泉洞IC,39.84172530616547,141.9557359853073
,大館能代空港IC,40.19870404277636,140.3731553328677
,沼田SIC,34.46391796540264,132.42293262486152
,矢巾SIC,39.618547407204304,141.13002075608114
,守山SIC,35.241365953962,137.0107918479831
,三方五湖SIC,35.56130924364387,135.90182838752025
,安八SIC,35.31151941756169,136.6530826751791
,大谷海岸IC,38.81539002176242,141.5565067477977
,岩井崎IC,38.83594967276292,141.55887113147978
,気仙沼中央IC,38.87157598737017,141.5776545191056
,能美根上SIC,36.46907963616591,136.4648313688967
,福山SASIC,34.49071552177603,133.3149343193556
,伊万里東府招IC,33.29413441892583,129.91265351162235
,小城SIC,33.31118,130.209777
,大石田村山IC,38.56136447365375,140.3984777270498
,富士吉田西桂SIC,35.50749237378535,138.83291195553625
,奥州SIC,39.11153510442403,141.11997555964456
,日高厚賀IC,42.42942207412992,142.24066392359026
,八千穂高原IC,36.128675840994255,138.45991637306852
,佐久穂IC,36.159928884997576,138.47084007794078
,佐久臼田IC,36.18543644154552,138.46995254524077
,高谷JCT,35.686360897593005,139.94606875330166
,市川南IC,35.69561893640569,139.93850849637582
,京葉JCT,35.71014123851864,139.9240203777908
,市川中央IC,35.722236510149,139.91599864323794
,市川北IC,35.74622195224218,139.91948536308618
,松戸IC,35.76216287076398,139.9010832305539
,三郷中央IC,35.82541061413699,139.87084928469548
,養老SASIC,35.321839,136.541875
,太田強戸SIC,36.339297288775846,139.34744175152605
,陸前高田長部IC,38.985859309656064,141.61288744493675
,釜石南IC,39.190944429867045,141.85161427660785
,晴海IC,35.65463691821239,139.7824601188912
,雲海橋交差点IC,32.70523122164835,131.32471987034367
,日之影深角IC,32.69141928940315,131.34877524695366
,四万十町西IC,33.18750402679934,133.1419566051223
,黒潮拳ノ川IC,33.136309008806485,133.12510020132737
,余市IC,43.18147162455633,140.82141749748484
,小樽塩谷IC,43.19871737597472,140.92902085741815
,小樽JCT,43.171304,141.068871
,松浦IC,33.3482837554461,129.72281182942066
,上野吉無田IC,32.74825006608759,130.87273891953458
,山都中島西IC,32.73714704562397,130.89698387876507
,大槌IC,39.37113681401608,141.89837809707822
,郡山中央SIC,37.40266287790888,140.31259271858372
,月ケ瀬IC,34.922773959041734,138.93020389976115
,歌津北IC,38.74224823594074,141.52384514865176
,小泉海岸IC,38.77986990576992,141.5101362472663
,本吉津谷IC,38.7919160760498,141.52082022663402
,水俣IC,32.209679671383086,130.42023873714902
,佐久間川合IC,35.07571798461795,137.7906138456595
,浦川IC,35.06194444020542,137.75838801551805
,東栄IC,35.04361778382019,137.72179942089434
,釜石唐丹IC,39.21802516734034,141.86716757005658
,釜石JCT,39.2544196075243,141.83685092524442
,釜石中央IC,39.26535697432852,141.84340649281725
,釜石仙人峠IC,39.25279040971285,141.7739457757919
,釧路別保IC,43.00534384183466,144.50441334138162
,足柄SIC,35.31429037468716,138.9658354581874
,富沢IC,35.25290567499327,138.4720946198374
,中富IC,35.45881459514507,138.45077975302868
,下部温泉早川IC,35.41705243929896,138.46241431580052
,和歌山南SIC,34.2083137932168,135.22876624459872
,東北IC,40.71867023554537,141.23617120073752
,七戸IC,40.732100642337926,141.21229750353015
,伊勢原JCT,35.41195180035878,139.3111091472625
,菰野IC,35.02384168328222,136.49931129479484
,鈴鹿PASIC,34.96219003458249,136.46359829862635
,亀山西JCT,34.91546801542736,136.39627843111876
,大安IC,35.10575950849289,136.5463551315593
,出雲多伎IC,35.28607163871684,132.64259906152978
,田村SIC,37.37056692057725,140.60392302751268
,舘山寺SIC,34.77412344138797,137.63743574626645
,ならはSIC,37.28516465645956,140.98147657168502
,唐桑小原木IC,38.953235765474886,141.6280385390411
,東根北IC,38.447199176849225,140.35380664314317
,八戸西SIC,40.518650021792354,141.41658212705357
,大網白里SIC,35.51159873773268,140.29487835987788
,北熊本SIC,32.89716310052375,130.71793310414816
,寄居SIC,36.17311309689722,139.1936439520095
,桜島SIC,31.72697016230301,130.61555489342228
,大熊IC,37.411294162091295,140.96220346780137
,かみのやま温泉IC,38.12681590458914,140.25655094502196
,滝沢中央SIC,39.7459920249552,141.09413117671102
,琴の浦IC,35.50113500689862,133.65765345252962
,吉岡温泉IC,35.49360531524295,134.1339287540435
,瑞穂宝樹IC,35.50113953398245,134.07120451932204
,浜村鹿野温泉IC,35.498628929333854,134.05253370084344
,横手北SIC,39.3256280436661,140.51270779773114
,人吉球磨SIC,32.20277996795315,130.77365893357074
,長門湯本温泉IC,34.34280471408962,131.17553162994932
,俵山北IC,34.30808189749862,131.1398204431374
,日本平久能山SIC,34.96171706657142,138.42239882782434
,国富SIC,31.980382567339834,131.36846382900603
,南部IC,35.30451253199435,138.4453819323327
,大野神戸IC,35.431343028179384,136.6255242395706
,遠軽IC,44.02305148905904,143.49818963150304
,小松川JCT,35.69884771235493,139.8598415559809
,中環小松川IC,35.70130509845725,139.85940661196528
,茂原長柄SIC,35.44758525444771,140.24792625814493
,気仙沼港IC,38.88339108537976,141.58614316203415
,侍浜IC,40.28289730708665,141.78509313107216
,侍浜南IC,40.2627590819626,141.78928758364407
,常磐双葉IC,37.45827135865183,140.96234952232183
,伊勢原大山IC,35.416077640132954,139.2861818345531
,湯田温泉SIC,34.138794747725626,131.46482772231275
,岐阜三輪SIC,35.51329115471472,136.83313865101985
,山県IC,35.51134721438829,136.7836874233504
,中山SIC,33.675017310085515,132.68605013825857
,根室IC,43.315672384914,145.5512436160935
,温根沼IC,43.27416594752875,145.50011399594618
,駒門SIC,35.253896430366765,138.90948520906312
,留萌IC,43.93891032212536,141.66949080003462
,淡路北SIC,34.579734320440146,135.01685195135343
,談合坂SIC,35.628674,139.044963
,宿毛和田IC,32.9480481350486,132.74712495810635
,宮古中央JCT,39.62434209893391,141.92828629281385
,宮古北IC,39.65235119993032,141.9293489601657
,田老南IC,39.73058815690968,141.96030583963594
,伊達桑折IC,37.82823850395575,140.51019561399576
,桑折JCT,37.83306713045348,140.48976040889215
,厚木PASIC,35.48997753915283,139.3692233469218
,日高北IC,35.491660993519545,134.7816363534159
,但馬空港IC,35.50730559752088,134.80224664978323
,洋野種市IC,40.40941613851916,141.701722370307
,苫小牧中央IC,42.66338183099133,141.58592426284545
,遊佐比子IC,39.00503362396004,139.8567602530562
,上市SIC,36.718928,137.347147
,伊勢堂岱IC,40.20736634459679,140.33409215621316
,蟹沢IC,40.20566836122301,140.31230723892028
,田野畑北IC,39.943545634293,141.83938338038692
,普代IC,40.00381488313679,141.88767290562083
,馬場IC,35.50677506872515,139.64121955403817
,常盤IC,34.58962749227488,135.51548727280866
,天美IC,34.59304960424356,135.53882387708825
,高知中央IC,33.56750748519429,133.5745603665127
,徳島沖洲IC,34.06373717726933,134.59345603124945
,徳島津田IC,34.048129523173046,134.58540630673525
,浦島大島IC,38.89656594498252,141.59481766287402
,気仙沼鹿折IC,38.91398786274639,141.59102985838518
,唐桑半島IC,38.92866557615151,141.61084700808146
,洋野宿戸IC,40.35926098432849,141.74756133708652
,洋野有家IC,40.32213782344608,141.761869987899
,新御殿場IC,35.327669064060494,138.91102011782434
,飛島JCT/IC,35.05174432811352,136.81809859103737
,飛島北IC,35.07521367861041,136.81769691691636
,千音寺南IC,35.15187374544838,136.81818661990565
,富田IC,35.12636536825835,136.81820573490918
,南陽IC,35.10180179571836,136.81596021772904
,大崎IC,31.446981676044544,130.99939470165657
,志布志IC,31.491588231875955,131.08552157307955
,志布志有明IC,31.46756468792569,131.0588998956571
,伊達中央IC,37.81255979096067,140.53529966556775
,平底交差点SA,32.67644939955973,131.36263346473186
,香椎浜JCT,33.65733934602096,130.43211732760486
,アイランドシティ出入口IC,33.66281091660386,130.41560674340636
,豊田上郷SIC,35.032040966667616,137.13517532617857
,矢板北SIC,36.822449942564624,139.9084030524805
,座光寺SIC,35.544395385561614,137.84305160880498
,一宮稲沢北/一宮JCT,35.28266524420987,136.781222343077
,綾瀬SIC,35.447395492692614,139.41799722730892
,多気ヴィソンSIC,34.4623646470703,136.52260297870083
,阿波PASA,34.089335356057795,134.20643321776842
阪和自動車道,印南SA,33.81121146975985,135.23665374356307
,新磐田SIC,34.825177,137.859286
,身延山IC,35.3482120443109,138.45279077844077
,平泉SIC,38.97565938707948,141.11136955967976
,村山本飯田IC,38.5250340080778,140.38103359896252
,村山IC,38.478706360240295,140.36399827619442
,村山名取IC,38.51869584493475,140.3724905392114
,新庄鮭川IC,38.776587566639584,140.28906477276422
,新庄真室川IC,38.83554712512694,140.3275362763737
,七戸北IC,40.78735848807322,141.14721629437545
,宍粟JCT,35.01400919219257,134.5142740474104
,徳島JCT,34.103741330897634,134.5941470397275
,刈谷SIC,35.04142741876048,137.04347472903828
,木古内IC,41.69420465597726,140.44896263834775
,秦野丹沢SIC,35.40069624151875,139.1788793931807
,新秦野IC,35.385842872595404,139.15593244231087
,雲南加茂SIC,35.333986488661395,132.89477100389033
,出流原SIC,36.367569497216834,139.54696499015313
九州自動車道,えびのPA,32.0690588,130.795683
東海北陸自動車道,ぎふ大和PA,35.7905349,136.9064868
常磐自動車道,ならはPA,37.2873369,140.9812435
東海北陸自動車道,ひるがの高原SA,35.9874306,136.9089962
長野自動車道,みどり湖PA,36.0989254,137.9963586
中国自動車道,七塚原SA,34.8254086,132.954865
舞鶴若狭自動車道,三方五湖PA,35.5613819,135.9009987
磐越自動車道,三春PA,37.4283829,140.4835783
山陽自動車道,三木SA,34.8163788,134.9756602
関越自動車道,三芳PA,35.841927,139.5023164
磐越自動車道,上川PA,37.6491297,139.4780104
中国自動車道,上月PA,35.0091061,134.3091386
徳島自動車道,上板SA,34.1401189,134.4176921
東九州自動車道,上毛PA,33.5610459,131.169227
東北自動車道,上河内SA,36.6911581,139.8919468
関越自動車道,上里SA,36.2536004,139.1243538
米子自動車道,上野PA,35.1012445,133.7835141
山陽自動車道,下松SA,34.0423906,131.9113444
関越自動車道,下牧PA,36.7015064,138.9851878
東名高速道路,中井PA,35.3428601,139.2035182
沖縄自動車道,中城PA,26.276752,127.781041
中央自動車道,中央道原PA,35.9609294,138.1930841
常磐自動車道,中郷SA,36.7549804,140.6890878
東名阪自動車道,亀山PA,34.8683527,136.4149279
中国自動車道,二宮PA,35.0638424,133.9768932
磐越自動車道,五泉PA,37.7625928,139.2135659
磐越自動車道,五百川PA,37.4853591,140.3151884
,井PA,35.59448,139.7555207
大分自動車道,井上PA,33.4007745,130.5741024
京都縦貫自動車道,京丹波PA,35.1558175,135.4151737
東九州自動車道,今川PA,33.7046399,130.9586932
松山自動車道,伊予灘SA,33.7720455,132.7556216
中国自動車道,伊佐PA,34.1202223,131.2098334
名神高速道路,伊吹PA,35.3336301,136.3959232
沖縄自動車道,伊芸SA,26.4608702,127.8707638
上信越自動車道,佐久平PA,36.2750066,138.5155725
東関東自動車道,佐原PA,35.8955577,140.555572
山陽自動車道,佐波川SA,34.0533804,131.5107686
東北自動車道,佐野SA,36.3211589,139.6169855
松山自動車道,入野PA,33.9489816,133.4225514
中央自動車道,八ヶ岳PA,35.8449207,138.3650969
山陽自動車道,八幡PA,34.4747649,133.0967086
秋田自動車道,八郎湖SA,40.009351,140.0863852
道央自動車道,八雲PA,42.2271898,140.3072954
舞鶴若狭自動車道,六人部PA,35.2554019,135.1833338
松山自動車道,内子PA,33.5663962,132.6674672
中央自動車道,内津峠PA,35.3341977,137.0434031
北関東自動車道,出流原PA,36.3676577,139.5478237
北陸自動車道,刈羽PA,37.4263728,138.6447607
伊勢湾岸自動車道,刈谷PA,35.0383933,137.0504061
中央自動車道,初狩PA,35.5999734,138.8855605
東北自動車道,前沢SA,39.0674939,141.1028705
松江自動車道,加茂岩倉PA,35.3576652,132.8895136
中国自動車道,加西SA,34.9478686,134.8016996
中国自動車道,勝央SA,35.0455062,134.1010045
九州自動車道,北熊本SA,32.8945195,130.7183602
北陸自動車道,北鯖江PA,35.972674,136.2039123
常磐自動車道,千代田PA,36.1456275,140.2112321
上信越自動車道,千曲川さかきPA,36.4555125,138.1997194
京都縦貫自動車道,南丹PA,35.0796595,135.5120806
北陸自動車道,南条SA,35.8264037,136.2019451
常磐自動車道,南相馬鹿島SA,37.7142088,140.9223105
道東自動車道,占冠PA,43.0058369,142.416717
圏央道,厚木PA,35.4912487,139.3694087
常磐自動車道,友部SA,36.3056241,140.339543
中央自動車道,双葉SA,35.6791883,138.5111302
九州自動車道,古賀SA,33.7426924,130.5238085
山形自動車道,古関PA,38.211069,140.5529093
阪和自動車道,吉備PA,34.1696123,136.2735755
山陽自動車道,吉備SA,34.6925545,133.8725357
中国自動車道,吉和SA,34.4770987,132.1320821
九州自動車道,吉松PA,32.0027084,130.7566015
徳島自動車道,吉野川SA,34.0370415,133.8942114
山陰自動車道,名和PA,35.5043526,133.5025648
北陸自動車道,名立谷浜SA,37.1675748,138.1115325
館山自動車道,君津PA,35.2835256,139.926124
名神高速道路,吹田SA,34.7799278,135.5238819
北陸自動車道,呉羽PA,36.6821172,137.1086447
山陽自動車道,周防灘PA,34.0307238,131.1107406
中国自動車道,和知PA,42.9912082,143.3324523
常磐自動車道,四倉PA,37.1171658,140.9147976
東北自動車道,国見SA,37.9068365,140.5785337
高知自動車道,土佐PA,33.4781102,133.3689537
新名神高速道路,土山SA,34.91451,136.2936184
関越自動車道,土樽PA,36.8663295,138.8757947
東海北陸自動車道,城端SA,36.5021306,136.8727655
九州自動車道,基山PA,33.4458846,130.5311965
関越自動車道,塩沢石打SA,36.9928812,138.818956
中央自動車道,境川PA,35.5999484,138.603071
北関東自動車道,壬生PA,36.4543343,139.8063527
伊勢自動車道,多気PA,34.4646867,136.5747113
名神高速道路,多賀SA,35.2179668,136.2835682
中国自動車道,大佐SA,35.036737,133.541945
関越自動車道,大和PA,37.1639899,138.9516645
東名阪自動車道,大山田PA,35.0855104,136.6596474
長崎自動車道,大村湾PA,33.0171817,129.9487994
東関東自動車道,大栄PA,35.8119476,140.4005151
秋田自動車道,大森PA,39.4074377,140.4472348
名神高速道路,大津SA,34.9961593,135.8691246
北陸自動車道,大潟PA,37.2168527,138.3259572
北陸自動車道,大積PA,37.4387442,138.7324093
東北自動車道,大谷PA,36.5996486,139.8425616
西名阪自動車道,天理PA,34.6164718,135.8131772
北関東自動車道,太田強戸PA,36.3405286,139.3486926
山陽自動車道,奥屋PA,34.455969,132.6224144
上信越自動車道,妙高SA,36.9294579,138.2111554
伊勢自動車道,嬉野PA,34.6128894,136.4618547
東名高速道路,守山PA,35.2414875,137.0102151
常磐自動車道,守谷SA,35.9388007,139.969273
中国自動車道,安佐SA,34.5922216,132.4859299
中国自動車道,安富PA,34.9847341,134.6039372
伊勢自動車道,安濃SA,34.7793903,136.4681749
東北自動車道,安達太良SA,37.5157773,140.3803702
山陰自動車道,宍道湖SA,35.4243508,133.0129717
新名神高速道路,宝塚北SA,34.8665202,135.303758
九州自動車道,宮原SA,32.5453942,130.6841251
山陽自動車道,宮島SA,34.3656373,132.3175088
関越自動車道,寄居PA,36.1717033,139.1936107
東名高速道路,富士川SA,35.1581628,138.6195307
山陽自動車道,富海PA,34.0620734,131.6524695
浜田自動車道,寒曳山PA,34.7807204,132.4520726
山形自動車道,寒河江SA,38.3661042,140.2599047
東北自動車道,小坂PA,40.3451939,140.7316051
長崎自動車道,小城PA,33.3115833,130.2096341
上信越自動車道,小布施PA,36.6935132,138.2955416
北陸自動車道,小矢部川SA,36.6257932,136.8725065
東名高速道路,小笠PA,34.7612551,137.9964721
山陽自動車道,小谷SA,34.428625,132.8425639
中央自動車道,小黒川PA,35.8405778,137.9336565
北陸自動車道,尼御前SA,36.3542897,136.3236405
名神高速道路,尾張一宮PA,35.2777947,136.8465238
中央自動車道,屏風山PA,35.3933354,137.2739576
宮崎自動車道,山之口SA,31.7956982,131.1638529
九州自動車道,山川PA,33.1283868,130.5173116
九州自動車道,山江PA,34.5428118,133.8000397
大分自動車道,山田SA,33.3713772,130.7570005
秋田自動車道,山谷PA,37.3254747,138.7830698
新東名高速道路,岡崎SA,35.0344116,137.2218012
東北自動車道,岩手山SA,39.914847,141.0470354
道央自動車道,岩見沢SA,43.1982455,141.807857
阪和自動車道,岸和田SA,34.4039633,135.4327103
関越自動車道,嵐山PA,36.0826556,139.2976119
東九州自動車道,川南PA,32.2010345,131.4857763
長崎自動車道,川登SA,33.1606392,130.0210293
磐越自動車道,差塩PA,37.1756914,140.7216291
館山自動車道,市原SA,35.4621551,140.0858972
中国自動車道,帝釈峡PA,34.894821,133.2452101
九州自動車道,広川SA,33.254107,130.5376237
高松自動車道,府中湖PA,34.2734444,133.9225013
中央自動車道,座光寺PA,35.5443412,137.8425431
東名阪自動車道,御在所SA,35.0191263,136.5942927
北陸自動車道,徳光PA,36.5340054,136.527834
中国自動車道,徳地PA,23.1133658,-82.3984906
中央自動車道,恵那峡SA,35.4554365,137.428111
八戸自動車道,折爪SA,40.3011376,141.4233174
新東名高速道路,掛川PA,34.8417265,138.042987
中国自動車道,揖保川PA,35.0312928,134.4869145
上信越自動車道,新井PA,37.0265088,138.2253111
東名高速道路,新城PA,34.8436384,137.4986791
宮崎自動車道,日向高崎PA,31.9012208,131.0318712
東名高速道路,日本坂PA,34.8898847,138.3189077
東名高速道路,日本平PA,34.9832966,138.4333959
山形自動車道,月山湖PA,38.4462367,140.0080271
道央自動車道,有珠山SA,42.4664808,140.90955
北陸自動車道,有磯海SA,36.7966012,137.4185981
中国自動車道,朝倉PA,34.358159,131.9008884
中国自動車道,本村PA,36.7579688,115.3817224
北陸自動車道,杉津PA,35.7323616,136.1146281
近畿自動車道,東大阪PA,34.688437,135.5943809
常磐自動車道,東海PA,36.4843716,140.5507425
上信越自動車道,東部湯の丸SA,36.3681882,138.3493816
東名高速道路,東郷PA,35.1302366,137.0842816
東海北陸自動車道,松ノ木峠PA,36.0714586,137.0534106
上信越自動車道,松代PA,36.5638872,138.1840355
中央自動車道,松川PA,34.8386849,138.035435
名神高速道路,桂川PA,34.941353,135.7186734
九州自動車道,桜島SA,31.726749,130.6162291
長野自動車道,梓川SA,36.270556,137.9318555
山陽自動車道,権現湖PA,34.8376419,134.8753718
上信越自動車道,横川SA,36.3411692,138.7402015
道央自動車道,樽前SA,42.6106221,141.4642127
九州自動車道,氷川PA,34.7116593,135.1053324
中国自動車道,江の川PA,34.7593934,132.7844298
圏央道,江戸崎PA,35.972125,140.2766522
徳島自動車道,池田PA,34.0064293,133.7065102
山陽自動車道,沼田PA,34.4642792,132.4225278
北関東自動車道,波志江PA,36.3544877,139.1890314
高松自動車道,津田の松原SA,34.2761713,134.2684011
東北自動車道,津軽SA,40.5664381,140.5793713
東名高速道路,浜名湖SA,34.7824879,137.6088421
新東名高速道路,浜松SA,34.8413024,137.7469041
東名高速道路,海老名SA,35.4318239,139.3991795
山陽自動車道,淡河PA,34.8313941,135.1545788
神戸淡路鳴門自動車道,淡路SA,34.5856329,135.0126773
神戸淡路鳴門自動車道,淡路島南PA,34.259504,134.6856975
中国自動車道,深谷PA,34.3865342,132.0149353
宮崎自動車道,清武PA,31.8680708,131.4015823
新東名高速道路,清水PA,35.1319936,138.5129838
東名高速道路,港北PA,35.5356763,139.5336676
名神高速道路,湖東三山PA,35.1625587,136.2749305
常磐自動車道,湯ノ岳PA,37.0234529,140.8142836
中国自動車道,湯田温泉PA,34.1390162,131.4660314
東関東自動車道,湾岸幕張PA,35.6604761,140.0288127
伊勢湾岸自動車道,湾岸長島PA,35.0362162,136.7312081
東北自動車道,滝沢PA,39.7802866,141.1100573
山陽自動車道,瀬戸PA,34.7682362,134.0731865
東名高速道路,牧之原SA,34.7580835,138.1644889
圏央道,狭山PA,35.8518914,139.3652489
九州自動車道,玉名PA,33.012167,130.5848522
中国自動車道,王司PA,34.0472539,131.0004397
山陽自動車道,玖珂PA,34.099651,132.1025869
大分自動車道,玖珠SA,33.2826337,131.1135218
山陰自動車道,琴浦PA,35.5017263,133.6579273
東海北陸自動車道,瓢ヶ岳PA,35.6721156,136.9535567
上信越自動車道,甘楽PA,36.2422111,138.9454132
道東自動車道,由仁PA,42.9071471,141.8994128
大分自動車道,由布岳PA,33.3024947,131.3976037
東名高速道路,由比PA,35.0779117,138.5463774
新名神高速道路,甲南PA,34.915239,136.1535105
東北自動車道,畑PA,40.0574294,141.0190581
山陽自動車道,白鳥PA,34.8743828,134.6238664
中国自動車道,真庭PA,35.0050225,133.7276699
東北自動車道,矢板北PA,36.8229632,139.9085521
中央自動車道,石川PA,35.6775923,139.3715776
道央自動車道,砂川SA,43.5283061,141.9280486
磐越自動車道,磐梯山SA,37.5376277,140.0332349
中国自動車道,社PA,34.9203861,134.9999846
中央自動車道,神坂PA,35.5185517,137.5714138
北陸自動車道,神田PA,35.3559553,136.3080132
中国自動車道,神郷PA,34.9950379,133.3936766
山陽自動車道,福山SA,34.4906175,133.316021
東北自動車道,福島松川PA,37.6614813,140.4450865
山陽自動車道,福石PA,34.7812822,134.3009274
高知自動車道,立川PA,33.81779,133.6652655
北関東自動車道,笠間PA,36.3445258,140.2544897
中国自動車道,筒賀PA,34.5621831,132.2535356
山陽自動車道,篠坂PA,34.5360157,133.4570093
北陸自動車道,米山SA,37.3381619,138.4758084
阪和自動車道,紀ノ川SA,34.2747005,135.2471581
道央自動車道,納内PA,43.3823977,141.892335
東北自動車道,紫波SA,39.5146647,141.1013667
舞鶴若狭自動車道,綾部PA,35.364972,135.3093402
神戸淡路鳴門自動車道,緑PA,34.3262527,134.8163686
九州自動車道,緑川PA,32.7081255,130.7567256
中国自動車道,美作追分PA,35.055935,133.8195026
中国自動車道,美東SA,34.1564618,131.3331889
常磐自動車道,美野里PA,36.2391073,140.2977238
東北自動車道,羽生PA,36.1808356,139.5875947
舞鶴若狭自動車道,舞鶴PA,35.4563137,135.4509464
東北自動車道,花輪SA,40.1837288,140.8016885
新名神高速道路,茨木千提寺PA,34.8822738,135.5335631
道央自動車道,茶志内PA,43.3780484,141.8897938
名神高速道路,草津PA,34.9758262,135.9443509
中国自動車道,荷卸峠PA,34.1799835,131.5949586
東北自動車道,菅生PA,38.1682612,140.7654868
圏央道,菖蒲PA,36.0385795,139.5871655
名神高速道路,菩提寺PA,35.0430325,136.0592215
大分自動車道,萩尾PA,33.3345691,130.903508
米子自動車道,蒜山高原SA,35.2713801,133.6296032
北陸自動車道,蓮台寺PA,37.0325457,137.8694789
東北自動車道,蓮田SA,36.0002175,139.6667517
東北自動車道,蔵王PA,38.0694126,140.6608298
上信越自動車道,藤岡PA,36.2714726,139.0719725
新東名高速道路,藤枝PA,34.9012114,138.2438989
中央自動車道,藤野PA,35.6158779,139.156932
中央自動車道,虎渓山PA,35.3522066,137.1269496
秋田自動車道,西仙北SA,39.5404923,140.3229887
磐越自動車道,西会津PA,37.5772566,139.6503361
中国自動車道,西宮名塩SA,34.8275693,135.3014297
舞鶴若狭自動車道,西紀SA,35.0917915,135.168342
九州自動車道,託麻PA,32.8062961,130.7933908
中央自動車道,談合坂SA,35.6281383,139.0462243
中央自動車道,諏訪湖SA,36.0261213,138.076335
関越自動車道,谷川岳PA,36.776738,138.9453483
常磐自動車道,谷田部東PA,36.0388038,140.1385874
高松自動車道,豊浜SA,34.0541572,133.6340698
道央自動車道,豊浦噴火湾PA,42.5923229,140.6950305
東名高速道路,豊田上郷SA,35.0325514,137.1356634
北陸自動車道,賤ヶ岳SA,35.520172,136.2167821
関越自動車道,赤城高原SA,36.6032889,139.0627441
中国自動車道,赤松PA,34.8852892,135.163953
北陸自動車道,越中境PA,36.972191,137.6078662
関越自動車道,越後川口SA,37.2659313,138.844713
東名高速道路,足柄SA,35.3135011,138.9679834
道央自動車道,輪厚PA,42.9512996,141.5111155
中央自動車道,辰野PA,35.9761328,138.0030486
山陽自動車道,道口PA,34.5668118,133.6433624
新東名高速道路,遠州森町PA,39.7684723,116.1542037
東北自動車道,那須高原SA,37.0561173,140.1018526
東北自動車道,都賀西方PA,36.4564228,139.7251612
中央自動車道,釈迦堂PA,35.6446153,138.7143041
道央自動車道,野幌PA,43.0806108,141.532605
浜田自動車道,金城PA,34.8825226,132.1925989
札樽自動車道,金山PA,43.1228112,141.2141289
東北自動車道,金成PA,38.8410987,141.0956669
長崎自動車道,金立SA,33.3287355,130.3067431
新名神高速道路,鈴鹿PA,34.9616408,136.4653699
秋田自動車道,錦秋湖SA,39.2985574,140.8439475
東北自動車道,鏡石PA,37.2559377,140.3354522
新東名高速道路,長篠設楽原PA,34.9243853,137.5066343
東北自動車道,長者原SA,38.6397962,140.9652877
東海北陸自動車道,長良川SA,35.5092884,136.897335
東海北陸自動車道,関SA,35.4895834,136.8956662
常磐自動車道,関本PA,36.8678836,140.7419451
中央自動車道,阿智PA,35.4491429,137.7460394
東北自動車道,阿武隈PA,37.1510773,140.2428553
徳島自動車道,阿波PA,34.0885804,134.2062348
磐越自動車道,阿賀野川SA,37.7372551,139.3191185
新東名高速道路,静岡SA,34.9683296,138.2909151
九州自動車道,鞍手PA,33.7756026,130.6912801
道央自動車道,音江PA,43.7082578,142.1444113
九州自動車道,須恵PA,33.5873611,130.5000439
東海北陸自動車道,飛騨河合PA,36.2248602,137.0055088
山陽自動車道,飾東PA,35.3114308,134.8702204
名神高速道路,養老SA,35.3217461,136.5407698
西名阪自動車道,香芝SA,34.5586396,135.6815694
中央自動車道,駒ヶ岳SA,35.7110219,137.906481
関越自動車道,駒寄PA,36.4314943,139.0154459
東名高速道路,駒門PA,35.2389731,138.9094528
新東名高速道路,駿河湾沼津SA,35.1520659,138.8108197
山陽自動車道,高坂PA,34.4696055,133.009618
関越自動車道,高坂SA,35.98619,139.3843215
岡山自動車道,高梁SA,34.877135,133.6622092
圏央道,高滝湖PA,35.3588269,140.1626221
東名高速道路,鮎沢PA,35.3562321,139.0158722
常磐自動車道,鳥の海PA,38.0389573,140.891988
高松自動車道,鳴門西PA,34.1615927,134.4948674
東北自動車道,鶴巣PA,38.412307,140.914744
中国自動車道,鹿野SA,34.2245176,131.8030784
名神高速道路,黒丸PA,35.0792407,136.1924893
北陸自動車道,黒埼PA,37.8242303,138.9840052
上信越自動車道,黒姫野尻湖PA,36.8069049,138.2187446
山陽自動車道,龍野西SA,34.8322494,134.5031759
